{"type":"FeatureCollection","features":[{"type":"Feature","properties":{"country":"U.S.A.","institutionCode":"KSEM","locality":"Cloudcroft","stateProvince":"New Mexico"},"geometry":{"type":"Point","coordinates":[-105.742,32.957]}},{"type":"Feature","properties":{"country":"U.S.A.","institutionCode":"KSEM","locality":"Cloudcroft","stateProvince":"New Mexico"},"geometry":{"type":"Point","coordinates":[-105.742,32.957]}},{"type":"Feature","properties":{"country":"U.S.A.","institutionCode":"TAMU","locality":"Lincoln Nat. Forest 3.8mi SW of Queen, FR540","stateProvince":"New Mexico"},"geometry":{"type":"Point","coordinates":[-104.76638888889,32.1575]}},{"type":"Feature","properties":{"country":"U.S.A.","institutionCode":"KSEM","locality":"Mountain Park","stateProvince":"New Mexico"},"geometry":{"type":"Point","coordinates":[-105.825,32.951]}},{"type":"Feature","properties":{"country":"U.S.A.","institutionCode":"KSEM","locality":"Alamogordo","stateProvince":"New Mexico"},"geometry":{"type":"Point","coordinates":[-105.96,32.9]}},{"type":"Feature","properties":{"country":"U.S.A.","institutionCode":"KSEM","locality":"Cloudcroft","stateProvince":"New Mexico"},"geometry":{"type":"Point","coordinates":[-105.742,32.957]}},{"type":"Feature","properties":{"country":"U.S.A.","institutionCode":"USNM","locality":"Cloudcroft","stateProvince":"New Mexico"},"geometry":{"type":"Point","coordinates":[-105.742,32.957]}},{"type":"Feature","properties":{"country":"Philippines","locality":"Mindanao","stateProvince":"Cebu"},"geometry":{"type":"Point","coordinates":[123.3814,9.6267]}},{"type":"Feature","properties":{"country":"Philippines","locality":"Tayabas","stateProvince":"Angeles City"},"geometry":{"type":"Point","coordinates":[121.591,14.0288]}},{"type":"Feature","properties":{"country":"Peru","institutionCode":"CAS","locality":"18mi NE La Merced, Colonia Perene, Rio Perene","stateProvince":"Junin"},"geometry":{"type":"Point","coordinates":[-75.2167,-10.9667]}},{"type":"Feature","properties":{"country":"Bolivia","institutionCode":"HNHM","locality":"Mapiri","stateProvince":"La Paz"},"geometry":{"type":"Point","coordinates":[-68.1666667,-15.25]}},{"type":"Feature","properties":{"country":"Bolivia","institutionCode":"MMBC","locality":"Coroico","stateProvince":"La Paz"},"geometry":{"type":"Point","coordinates":[-67.7333,-16.1833]}},{"type":"Feature","properties":{"country":"Bolivia","institutionCode":"MMBC","locality":"Mapiri","stateProvince":"La Paz"},"geometry":{"type":"Point","coordinates":[-68.1666667,-15.25]}},{"type":"Feature","properties":{"country":"Peru","institutionCode":"BMNH","locality":"SW Pto Maldonado","stateProvince":"Madre de Dios"},"geometry":{"type":"Point","coordinates":[-69.1833,-12.6]}},{"type":"Feature","properties":{"country":"Peru","institutionCode":"MUSM","locality":"Tambopata Reserve Zone","stateProvince":"Madre de Dios"},"geometry":{"type":"Point","coordinates":[-69.616666666667,-13.133333333333]}},{"type":"Feature","properties":{"country":"Peru","institutionCode":"CAS","locality":"18mi NE La Merced, Colonia Perene, Rio Perene","stateProvince":"Junin"},"geometry":{"type":"Point","coordinates":[-75.2167,-10.9667]}},{"type":"Feature","properties":{"country":"Peru","institutionCode":"CAS","locality":"6.4km E Acobamba","stateProvince":"Junin"},"geometry":{"type":"Point","coordinates":[-75.603611111111,-11.352777777778]}},{"type":"Feature","properties":{"country":"Bolivia","institutionCode":"NCSU","locality":"Mapiri","stateProvince":"La Paz"},"geometry":{"type":"Point","coordinates":[-68.1666667,-15.25]}},{"type":"Feature","properties":{"country":"Peru","institutionCode":"HNHM","locality":"Pebas","stateProvince":"Loreto"},"geometry":{"type":"Point","coordinates":[-71.8167,-3.3333]}},{"type":"Feature","properties":{"country":"Thailand","institutionCode":"UCR","locality":"Khao Koh Hong","stateProvince":"Songkhia"},"geometry":{"type":"Point","coordinates":[100.52,7.0166666666667]}},{"type":"Feature","properties":{"country":"Thailand","institutionCode":"INHS","locality":"Khao Koh Hong","stateProvince":"Songkhia"},"geometry":{"type":"Point","coordinates":[100.52,7.0166666666667]}},{"type":"Feature","properties":{"country":"Brazil","institutionCode":"DZUP","locality":"Candeias do Jamari, Balneario Rio Preto","stateProvince":"Rondonia"},"geometry":{"type":"Point","coordinates":[-63.695555555556,-8.8097222222222]}},{"type":"Feature","properties":{"country":"Brazil","institutionCode":"MNRJ","locality":"Ouro Preto d'Oeste","stateProvince":"Rondonia"},"geometry":{"type":"Point","coordinates":[-62.3,-10.666]}},{"type":"Feature","properties":{"country":"Brazil","institutionCode":"LACM","locality":"62km S Ariquemes, Fazenda Rancho Grande","stateProvince":"Rondonia"},"geometry":{"type":"Point","coordinates":[-63.333333333333,-10.883333333333]}},{"type":"Feature","properties":{"country":"Brazil","institutionCode":"DZUP","locality":"Vilhena","stateProvince":"Rondonia"},"geometry":{"type":"Point","coordinates":[-60.1166,-12.7166]}},{"type":"Feature","properties":{"country":"Brazil","institutionCode":"DZUP","locality":"Cacaulandia [Caucalandia]","stateProvince":"Rondonia"},"geometry":{"type":"Point","coordinates":[-62.894444444444,-10.355555555556]}},{"type":"Feature","properties":{"country":"Brazil","institutionCode":"MNRJ","locality":"Pimenta Bueno","stateProvince":"Rondonia"},"geometry":{"type":"Point","coordinates":[-61.2,-11.65]}},{"type":"Feature","properties":{"country":"Brazil","institutionCode":"DZUP","locality":"Candeias do Jamari, Balneario Rio Preto","stateProvince":"Rondonia"},"geometry":{"type":"Point","coordinates":[-63.695555555556,-8.8097222222222]}},{"type":"Feature","properties":{"country":"Brazil","institutionCode":"MNRJ","locality":"Ouro Preto d'Oeste","stateProvince":"Rondonia"},"geometry":{"type":"Point","coordinates":[-62.3,-10.666]}},{"type":"Feature","properties":{"country":"Brazil","institutionCode":"FSCA","locality":"62km S Ariquemes, nr. Fazenda Rancho Grande","stateProvince":"Rondonia"},"geometry":{"type":"Point","coordinates":[-63.333333333333,-10.883333333333]}},{"type":"Feature","properties":{"country":"Brazil","institutionCode":"MNRJ","locality":"Vilhena","stateProvince":"Rondonia"},"geometry":{"type":"Point","coordinates":[-60.1166,-12.7166]}},{"type":"Feature","properties":{"country":"Brazil","institutionCode":"DZUP","locality":"Ouro Preto d'Oeste","stateProvince":"Rondonia"},"geometry":{"type":"Point","coordinates":[-62.3,-10.666]}},{"type":"Feature","properties":{"country":"Brazil","institutionCode":"UKL","locality":"62km S Ariquemes, nr. Fazenda Rancho Grande","stateProvince":"Rondonia"},"geometry":{"type":"Point","coordinates":[-63.333333333333,-10.883333333333]}},{"type":"Feature","properties":{"country":"Brazil","institutionCode":"MNRJ","locality":"Vilhena","stateProvince":"Rondonia"},"geometry":{"type":"Point","coordinates":[-60.1166,-12.7166]}},{"type":"Feature","properties":{"country":"Brazil","institutionCode":"INHS","locality":"62 km SW Ariquemes, Fazenda Rancho Grande","stateProvince":"Rondonia"},"geometry":{"type":"Point","coordinates":[-63.333333333333,-10.883333333333]}},{"type":"Feature","properties":{"country":"Brazil","institutionCode":"DZUP","locality":"62km SW Ariquemes [Ariquema]","stateProvince":"Rondonia"},"geometry":{"type":"Point","coordinates":[-63.4675,-10.3275]}},{"type":"Feature","properties":{"country":"Brazil","institutionCode":"MZSP","locality":"Ji-Parana, Rio Urupa","stateProvince":"Rondonia"},"geometry":{"type":"Point","coordinates":[-61.966,-10.833]}},{"type":"Feature","properties":{"country":"Brazil","institutionCode":"INPA","locality":"Reserva Humboldt, LOCAL - Est. Cemat","stateProvince":"Mato Grosso"},"geometry":{"type":"Point","coordinates":[-59.8,-10.183333333333]}},{"type":"Feature","properties":{"country":"Brazil","institutionCode":"DZUP","locality":"Vilhena","stateProvince":"Rondonia"},"geometry":{"type":"Point","coordinates":[-60.1166,-12.7166]}},{"type":"Feature","properties":{"country":"Brazil","institutionCode":"DZUP","locality":"Vilhena","stateProvince":"Rondonia"},"geometry":{"type":"Point","coordinates":[-60.1166,-12.7166]}},{"type":"Feature","properties":{"country":"Brazil","institutionCode":"BMNH","locality":"Xavantina, Cachimbo","stateProvince":"Mato Grosso"},"geometry":{"type":"Point","coordinates":[-51.75,-12.816666666667]}},{"type":"Feature","properties":{"country":"Brazil","institutionCode":"DZUP","locality":"Vilhena","stateProvince":"Rondonia"},"geometry":{"type":"Point","coordinates":[-60.1166,-12.7166]}},{"type":"Feature","properties":{"country":"Brazil","institutionCode":"DZUP","locality":"Vilhena","stateProvince":"Rondonia"},"geometry":{"type":"Point","coordinates":[-60.1166,-12.7166]}},{"type":"Feature","properties":{"country":"Brazil","institutionCode":"MNRJ","locality":"Ouro Preto d'Oeste","stateProvince":"Rondonia"},"geometry":{"type":"Point","coordinates":[-62.3,-10.666]}},{"type":"Feature","properties":{"country":"Brazil","institutionCode":"DZUP","locality":"Diamantino, Alto Rio Arinos, Faz. S. Joao","stateProvince":"Mato Grosso"},"geometry":{"type":"Point","coordinates":[-56.45,-14.416]}},{"type":"Feature","properties":{"country":"Brazil","institutionCode":"DZUP","locality":"Ariquemes, Cacaulandia, Fazenda Rancho Grande","stateProvince":"Rondonia"},"geometry":{"type":"Point","coordinates":[-63.333333333333,-10.883333333333]}},{"type":"Feature","properties":{"country":"Brazil","institutionCode":"INPA","locality":"Aripuana, LOCAL - Est. Fontanilha","stateProvince":"Mato Grosso"},"geometry":{"type":"Point","coordinates":[-60.6333,-9.1667]}},{"type":"Feature","properties":{"country":"Peru","institutionCode":"FSCA","locality":"Tingo Maria, ditch accros from house","stateProvince":"Huanuco"},"geometry":{"type":"Point","coordinates":[-75.9833,-9.3]}},{"type":"Feature","properties":{"country":"Peru","institutionCode":"CAS","locality":"Tingo Maria, Monson Valley","stateProvince":"Huanuco"},"geometry":{"type":"Point","coordinates":[-75.9833,-9.3]}},{"type":"Feature","properties":{"country":"Peru","institutionCode":"CAS","locality":"5mi SW Las Palmas","stateProvince":"Huanuco"},"geometry":{"type":"Point","coordinates":[-75.9667,-9.3333]}},{"type":"Feature","properties":{"country":"Peru","institutionCode":"FSCA","locality":"Tambillo Chico Canyon, 13 km S Tingo Maria","stateProvince":"Huanuco"},"geometry":{"type":"Point","coordinates":[-76.383333333333,-9.25]}},{"type":"Feature","properties":{"country":"Peru","institutionCode":"CAS","locality":"5mi SW Las Palmas","stateProvince":"Huanuco"},"geometry":{"type":"Point","coordinates":[-75.9667,-9.3333]}},{"type":"Feature","properties":{"country":"Peru","institutionCode":"CAS","locality":"Tingo Maria, Monson Valley","stateProvince":"Huanuco"},"geometry":{"type":"Point","coordinates":[-75.9833,-9.3]}},{"type":"Feature","properties":{"country":"Brazil","institutionCode":"MNRJ","locality":"Melgaco, Estacao Biologica Ferreira Pena","stateProvince":"Para"},"geometry":{"type":"Point","coordinates":[-51.45,-1.7333333333333]}},{"type":"Feature","properties":{"country":"Brazil","institutionCode":"CNC","locality":"Canadian Fathers' Pool, 2 km N of Itacoatiara-Manaus Highway, 11 km N of Itacoatiara","stateProvince":"Amazonas"},"geometry":{"type":"Point","coordinates":[-58.416666666667,-3.0333333333333]}},{"type":"Feature","properties":{"country":"Costa Rica","institutionCode":"CNC","locality":"Monte Verde","stateProvince":"Puntarenas"},"geometry":{"type":"Point","coordinates":[-84.8167,10.3]}},{"type":"Feature","properties":{"country":"Panama","institutionCode":"CNC","locality":"Barro Colorado Island","stateProvince":"Panama"},"geometry":{"type":"Point","coordinates":[-79.8378,9.1636]}},{"type":"Feature","properties":{"country":"Peru","locality":"Tingo Maria","stateProvince":"Huanuco"},"geometry":{"type":"Point","coordinates":[-75.9833,-9.3]}},{"type":"Feature","properties":{"country":"Peru","locality":"Callanga","stateProvince":"Lima"},"geometry":{"type":"Point","coordinates":[-76.3167,-12.5667]}},{"type":"Feature","properties":{"country":"Panama","institutionCode":"AMNH","locality":"Barro Colorado Island","stateProvince":"Panama"},"geometry":{"type":"Point","coordinates":[-79.8378,9.1636]}},{"type":"Feature","properties":{"country":"Costa Rica","institutionCode":"CNC","locality":"Braulio Carrillo National Park"},"geometry":{"type":"Point","coordinates":[-84.116666666667,10.166666666667]}},{"type":"Feature","properties":{"country":"Brazil","institutionCode":"CNC","locality":"Mirapinima, Rio Negro","stateProvince":"Amazonas"},"geometry":{"type":"Point","coordinates":[-61.1428,-2.1803]}},{"type":"Feature","properties":{"country":"Brazil","institutionCode":"CNC","locality":"Manaus, Reserva Ducke, km 26 of Manaus-Itacoatiara highway","stateProvince":"Amazonas"},"geometry":{"type":"Point","coordinates":[-60.0253,-3.1133]}},{"type":"Feature","properties":{"country":"Peru","institutionCode":"INHS","locality":"Parque Nacional Yanachaga-Chemillen, Huampal","stateProvince":"Pasco"},"geometry":{"type":"Point","coordinates":[-75.573611111111,-10.185555555556]}},{"type":"Feature","properties":{"country":"Peru","institutionCode":"INHS","locality":"Parque Nacional Yanachaga-Chemillen, Huampal","stateProvince":"Pasco"},"geometry":{"type":"Point","coordinates":[-75.573611111111,-10.185555555556]}},{"type":"Feature","properties":{"country":"Peru","institutionCode":"INHS","locality":"Parque Nacional Yanachaga-Chemillen, Huampal","stateProvince":"Pasco"},"geometry":{"type":"Point","coordinates":[-75.573611111111,-10.185555555556]}},{"type":"Feature","properties":{"country":"Peru","institutionCode":"INHS","locality":"Parque Nacional Yanachaga-Chemillen, Huampal","stateProvince":"Pasco"},"geometry":{"type":"Point","coordinates":[-75.573611111111,-10.185555555556]}},{"type":"Feature","properties":{"country":"Peru","locality":"Tingo Maria","stateProvince":"Huanuco"},"geometry":{"type":"Point","coordinates":[-75.9833,-9.3]}},{"type":"Feature","properties":{"country":"Peru","locality":"Puerto Maldonado","stateProvince":"Madre de Dios"},"geometry":{"type":"Point","coordinates":[-69.1833,-12.6]}},{"type":"Feature","properties":{"country":"Brazil","institutionCode":"CNC","locality":"Bertioga","stateProvince":"Sao Paulo"},"geometry":{"type":"Point","coordinates":[-46.15,-23.85]}},{"type":"Feature","properties":{"country":"Peru","institutionCode":"INHS","locality":"Tingo Maria, Pte. Colgante","stateProvince":"Huanuco"},"geometry":{"type":"Point","coordinates":[-75.969444444444,-9.4188888888889]}},{"type":"Feature","properties":{"country":"Peru","institutionCode":"USNM","locality":"Chanchamayo [Province]","stateProvince":"Junin"},"geometry":{"type":"Point","coordinates":[-75.316666666667,-11.066666666667]}},{"type":"Feature","properties":{"country":"Peru","institutionCode":"USNM","locality":"Chanchamayo [Province]","stateProvince":"Junin"},"geometry":{"type":"Point","coordinates":[-75.316666666667,-11.066666666667]}},{"type":"Feature","properties":{"country":"Venezuela","institutionCode":"CNC","locality":"Tiara","stateProvince":"Aragua"},"geometry":{"type":"Point","coordinates":[-67.15,10.1333]}},{"type":"Feature","properties":{"country":"Guatemala","institutionCode":"CNC","locality":"Los Escobas, SW of Puerto Barrios"},"geometry":{"type":"Point","coordinates":[-88.6,15.7167]}},{"type":"Feature","properties":{"country":"Guatemala","institutionCode":"CNC","locality":"Los Escobas, SW of Puerto Barrios"},"geometry":{"type":"Point","coordinates":[-88.6,15.7167]}},{"type":"Feature","properties":{"country":"Peru","institutionCode":"INHS","locality":"Parque Nacional Yanachaga-Chemillen, Huampal","stateProvince":"Pasco"},"geometry":{"type":"Point","coordinates":[-75.573611111111,-10.185555555556]}},{"type":"Feature","properties":{"country":"Peru","institutionCode":"INHS","locality":"Parque Nacional Yanachaga-Chemillen, Huampal","stateProvince":"Pasco"},"geometry":{"type":"Point","coordinates":[-75.573611111111,-10.185555555556]}},{"type":"Feature","properties":{"country":"Peru","locality":"Tingo Maria","stateProvince":"Huanuco"},"geometry":{"type":"Point","coordinates":[-75.9833,-9.3]}},{"type":"Feature","properties":{"country":"Peru","institutionCode":"INHS","locality":"Parque Nacional Yanachaga-Chemillen, Huampal","stateProvince":"Pasco"},"geometry":{"type":"Point","coordinates":[-75.573611111111,-10.185555555556]}},{"type":"Feature","properties":{"country":"Peru","institutionCode":"INHS","locality":"Parque Nacional Yanachaga-Chemillen, Huampal","stateProvince":"Pasco"},"geometry":{"type":"Point","coordinates":[-75.573611111111,-10.185555555556]}},{"type":"Feature","properties":{"country":"Peru","institutionCode":"INHS","locality":"Parque Nacional Yanachaga-Chemillen, Huampal","stateProvince":"Pasco"},"geometry":{"type":"Point","coordinates":[-75.573611111111,-10.185555555556]}},{"type":"Feature","properties":{"country":"Peru","institutionCode":"INHS","locality":"Parque Nacional Yanachaga-Chemillen, Huampal","stateProvince":"Pasco"},"geometry":{"type":"Point","coordinates":[-75.573611111111,-10.185555555556]}},{"type":"Feature","properties":{"country":"Bolivia","institutionCode":"CNC","locality":"Santa Cruz, Rio Espejo","stateProvince":"Santa Cruz"},"geometry":{"type":"Point","coordinates":[-63.1667,-17.8]}},{"type":"Feature","properties":{"country":"Peru","locality":"Tingo Maria","stateProvince":"Huanuco"},"geometry":{"type":"Point","coordinates":[-75.9833,-9.3]}},{"type":"Feature","properties":{"country":"Trinidad and Tobago","institutionCode":"CNC","locality":"Saint Augustine","stateProvince":"Trinidad"},"geometry":{"type":"Point","coordinates":[-61.4,10.65]}},{"type":"Feature","properties":{"country":"Trinidad and Tobago","institutionCode":"CNC","locality":"Morne Bleu","stateProvince":"Trinidad"},"geometry":{"type":"Point","coordinates":[-61.3,10.716666666667]}},{"type":"Feature","properties":{"country":"Trinidad and Tobago","institutionCode":"CNC","locality":"Balandra Bay","stateProvince":"Trinidad"},"geometry":{"type":"Point","coordinates":[-61,10.7]}},{"type":"Feature","properties":{"country":"Peru","institutionCode":"INHS","locality":"Parque Nacional Yanachaga-Chemillen, Huampal","stateProvince":"Pasco"},"geometry":{"type":"Point","coordinates":[-75.573611111111,-10.185555555556]}},{"type":"Feature","properties":{"country":"Peru","institutionCode":"INHS","locality":"Parque Nacional Yanachaga-Chemillen, Huampal","stateProvince":"Pasco"},"geometry":{"type":"Point","coordinates":[-75.573611111111,-10.185555555556]}},{"type":"Feature","properties":{"country":"Peru","institutionCode":"INHS","locality":"Parque Nacional Yanachaga-Chemillen, Huampal","stateProvince":"Pasco"},"geometry":{"type":"Point","coordinates":[-75.573611111111,-10.185555555556]}},{"type":"Feature","properties":{"country":"Peru","institutionCode":"INHS","locality":"Parque Nacional Yanachaga-Chemillen, Huampal","stateProvince":"Pasco"},"geometry":{"type":"Point","coordinates":[-75.573611111111,-10.185555555556]}},{"type":"Feature","properties":{"country":"Peru","institutionCode":"INHS","locality":"Parque Nacional Yanachaga-Chemillen, Huampal","stateProvince":"Pasco"},"geometry":{"type":"Point","coordinates":[-75.573611111111,-10.185555555556]}},{"type":"Feature","properties":{"country":"Peru","institutionCode":"INHS","locality":"Parque Nacional Yanachaga-Chemillen, Huampal","stateProvince":"Pasco"},"geometry":{"type":"Point","coordinates":[-75.573611111111,-10.185555555556]}},{"type":"Feature","properties":{"country":"Peru","institutionCode":"USNM","locality":"Chanchamayo [Province]","stateProvince":"Junin"},"geometry":{"type":"Point","coordinates":[-75.316666666667,-11.066666666667]}},{"type":"Feature","properties":{"country":"Costa Rica","institutionCode":"INHS","locality":"Las Cruces Botanical Garden","stateProvince":"Puntarenas"},"geometry":{"type":"Point","coordinates":[-82.961666666667,8.7861111111111]}},{"type":"Feature","properties":{"country":"Panama","institutionCode":"USNM","locality":"Bugaba","stateProvince":"Chiriqui"},"geometry":{"type":"Point","coordinates":[-82.616666666667,8.4833333333333]}},{"type":"Feature","properties":{"country":"Brazil","institutionCode":"NCSU","locality":"Nova Teutonia","stateProvince":"Santa Catarina"},"geometry":{"type":"Point","coordinates":[-52.4,-27.05]}},{"type":"Feature","properties":{"country":"Mexico","institutionCode":"FMNH","locality":"El Fortin","stateProvince":"Veracruz"},"geometry":{"type":"Point","coordinates":[-97,18.9]}},{"type":"Feature","properties":{"country":"Guatemala","institutionCode":"BMNH","locality":"San Juan","stateProvince":"Alta Verapaz"},"geometry":{"type":"Point","coordinates":[-89.816666666667,15.383333333333]}},{"type":"Feature","properties":{"country":"Panama","institutionCode":"NCSU","locality":"Cerro Campana"},"geometry":{"type":"Point","coordinates":[-79.933333333333,8.6666666666667]}},{"type":"Feature","properties":{"country":"Panama","institutionCode":"USNM","locality":"Barro Colorado Island, Gatun Lake Park"},"geometry":{"type":"Point","coordinates":[-79.8378,9.1636]}},{"type":"Feature","properties":{"country":"Panama","institutionCode":"UNSM","locality":"Cerro Campana","stateProvince":"Panama"},"geometry":{"type":"Point","coordinates":[-79.933333333333,8.6666666666667]}},{"type":"Feature","properties":{"country":"Ecuador","institutionCode":"NCSU","locality":"Balzapampa","stateProvince":"Bolivar"},"geometry":{"type":"Point","coordinates":[-79.183333333333,-1.7666666666667]}},{"type":"Feature","properties":{"country":"Ecuador","institutionCode":"NCSU","locality":"Balzapampa","stateProvince":"Bolivar"},"geometry":{"type":"Point","coordinates":[-79.183333333333,-1.7666666666667]}},{"type":"Feature","properties":{"country":"Panama","institutionCode":"INHS","locality":"~16 km W. Volcan, Cafe Duran plant","stateProvince":"Chiriqui"},"geometry":{"type":"Point","coordinates":[-82.71486,8.83831]}},{"type":"Feature","properties":{"country":"Ecuador","institutionCode":"USNM","locality":"Cachabi","stateProvince":"Esmeraldas"},"geometry":{"type":"Point","coordinates":[-78.8,0.96666666666667]}},{"type":"Feature","properties":{"country":"Ecuador","institutionCode":"LACM","locality":"Maquipucuna","stateProvince":"Pichincha"},"geometry":{"type":"Point","coordinates":[-78.63,0.12]}},{"type":"Feature","properties":{"country":"Peru","institutionCode":"AMNH","locality":"Tingo Maria","stateProvince":"Huanuco"},"geometry":{"type":"Point","coordinates":[-75.9833,-9.3]}},{"type":"Feature","properties":{"country":"Peru","institutionCode":"USNM","locality":"Chanchamayo [Province]","stateProvince":"Junin"},"geometry":{"type":"Point","coordinates":[-75.316666666667,-11.066666666667]}},{"type":"Feature","properties":{"country":"Peru","institutionCode":"CAS","locality":"Chanchamayo [Province]","stateProvince":"Junin"},"geometry":{"type":"Point","coordinates":[-75.316666666667,-11.066666666667]}},{"type":"Feature","properties":{"country":"Peru","institutionCode":"NCSU","locality":"Chanchamayo [Province]","stateProvince":"Junin"},"geometry":{"type":"Point","coordinates":[-75.316666666667,-11.066666666667]}},{"type":"Feature","properties":{"country":"Peru","institutionCode":"HNHM","locality":"Callanga","stateProvince":"Lima"},"geometry":{"type":"Point","coordinates":[-76.3167,-12.5667]}},{"type":"Feature","properties":{"country":"Peru","institutionCode":"AMNH","locality":"Tingo Maria","stateProvince":"Huanuco"},"geometry":{"type":"Point","coordinates":[-75.9833,-9.3]}},{"type":"Feature","properties":{"country":"Peru","institutionCode":"USNM","locality":"Chanchamayo [Province]","stateProvince":"Junin"},"geometry":{"type":"Point","coordinates":[-75.316666666667,-11.066666666667]}},{"type":"Feature","properties":{"country":"Panama","institutionCode":"USNM","locality":"Mojinga swamp","stateProvince":"Colon"},"geometry":{"type":"Point","coordinates":[-79.96472,9.303056]}},{"type":"Feature","properties":{"country":"Panama","institutionCode":"USNM","locality":"Mojinga swamp","stateProvince":"Colon"},"geometry":{"type":"Point","coordinates":[-79.96472,9.303056]}},{"type":"Feature","properties":{"country":"Costa Rica","institutionCode":"INHS","locality":"Las Cruces Botanical Garden","stateProvince":"Puntarenas"},"geometry":{"type":"Point","coordinates":[-82.961666666667,8.7861111111111]}},{"type":"Feature","properties":{"country":"Panama","institutionCode":"INHS","locality":"~16 km W. Volcan, Cafe Duran plant","stateProvince":"Chiriqui"},"geometry":{"type":"Point","coordinates":[-82.71486,8.83831]}},{"type":"Feature","properties":{"country":"Venezuela","institutionCode":"INHS","locality":"15km SW Guarico","stateProvince":"Lara"},"geometry":{"type":"Point","coordinates":[-69.85,9.5833333333333]}},{"type":"Feature","properties":{"country":"Venezuela","institutionCode":"USNM","locality":"Guarico","stateProvince":"Lara"},"geometry":{"type":"Point","coordinates":[-69.7861,9.625]}},{"type":"Feature","properties":{"country":"Venezuela","institutionCode":"CNC","locality":"[Parque Nacional] Yacambu","stateProvince":"Lara"},"geometry":{"type":"Point","coordinates":[-68.45,9.7]}},{"type":"Feature","properties":{"country":"Venezuela","institutionCode":"INHS","locality":"10km SW Guarico","stateProvince":"Lara"},"geometry":{"type":"Point","coordinates":[-69.816666666667,9.6]}},{"type":"Feature","properties":{"country":"Brazil","institutionCode":"NCSU","locality":"Nova Teutonia","stateProvince":"Santa Catarina"},"geometry":{"type":"Point","coordinates":[-52.4,-27.05]}},{"type":"Feature","properties":{"country":"Brazil","institutionCode":"MNRJ","locality":"Santa Teresa, Museu Melo Leitao","stateProvince":"Espirito Santo"},"geometry":{"type":"Point","coordinates":[-40.6,-19.9167]}},{"type":"Feature","properties":{"country":"U.S.A.","institutionCode":"TAMU","locality":"BBNP Pine Canyon camp area #4","stateProvince":"Texas"},"geometry":{"type":"Point","coordinates":[-103.23444444444,29.266388888889]}},{"type":"Feature","properties":{"country":"U.S.A.","institutionCode":"UDCC","locality":"Laurel, Trapp Pond S.P.","stateProvince":"Delaware"},"geometry":{"type":"Point","coordinates":[-75.57167,38.55639]}},{"type":"Feature","properties":{"country":"U.S.A.","institutionCode":"UDCC","locality":"Arcola, Sandy Hollow","stateProvince":"Louisiana"},"geometry":{"type":"Point","coordinates":[-90.51028,30.77639]}},{"type":"Feature","properties":{"country":"U.S.A.","institutionCode":"INHS","locality":"Knoxville","stateProvince":"Tennessee"},"geometry":{"type":"Point","coordinates":[-83.9208,35.9606]}},{"type":"Feature","properties":{"country":"U.S.A.","institutionCode":"UDCC","locality":"n. Havre de Grace, just West I-95","stateProvince":"Maryland"},"geometry":{"type":"Point","coordinates":[-76.0919,39.5492]}},{"type":"Feature","properties":{"country":"U.S.A.","institutionCode":"UDCC","locality":"Pennsville, Correctiv power plant","stateProvince":"New Jersey"},"geometry":{"type":"Point","coordinates":[-75.5169,39.6533]}},{"type":"Feature","properties":{"country":"U.S.A.","institutionCode":"UDCC","locality":"n. Avondale, Stroud Water R. C.","stateProvince":"Pennsylvania"},"geometry":{"type":"Point","coordinates":[-76.68944,39.93583]}},{"type":"Feature","properties":{"country":"U.S.A.","institutionCode":"UDCC","locality":"Deep Creek","stateProvince":"North Carolina"},"geometry":{"type":"Point","coordinates":[-83.4345,35.4646]}},{"type":"Feature","properties":{"country":"U.S.A.","institutionCode":"UDCC","locality":"GSMNP Twin Creeks ATBI plot","stateProvince":"Tennessee"},"geometry":{"type":"Point","coordinates":[-83.484444444444,35.686111111111]}},{"type":"Feature","properties":{"country":"U.S.A.","institutionCode":"TAMU","locality":"GSMNP Cataloochee Ar., 1 I W Cataloochee Campgrd.","stateProvince":"North Carolina"},"geometry":{"type":"Point","coordinates":[-83.099166666667,35.628333333333]}},{"type":"Feature","properties":{"country":"U.S.A.","institutionCode":"UDCC","locality":"Little Orleans, campground","stateProvince":"Maryland"},"geometry":{"type":"Point","coordinates":[-78.3867,39.6258]}},{"type":"Feature","properties":{"country":"U.S.A.","institutionCode":"TAMU","locality":"Forsyth","stateProvince":"Missouri"},"geometry":{"type":"Point","coordinates":[-93.118333333333,36.701111111111]}},{"type":"Feature","properties":{"country":"Mexico","institutionCode":"INHS","locality":"13km ESE Tuxcacuesco","stateProvince":"Jalisco"},"geometry":{"type":"Point","coordinates":[-104.03138888889,19.668333333333]}},{"type":"Feature","properties":{"country":"Mexico","institutionCode":"INHS","locality":"14km ESE Tuxcacuesco","stateProvince":"Jalisco"},"geometry":{"type":"Point","coordinates":[-104.4,19.664444444444]}},{"type":"Feature","properties":{"country":"Mexico","institutionCode":"INHS","locality":"14km ESE Tuxcacuesco","stateProvince":"Jalisco"},"geometry":{"type":"Point","coordinates":[-104.4,19.664444444444]}},{"type":"Feature","properties":{"country":"Mexico","institutionCode":"INHS","locality":"13km ESE Tuxcacuesco","stateProvince":"Jalisco"},"geometry":{"type":"Point","coordinates":[-104.03138888889,19.668333333333]}},{"type":"Feature","properties":{"country":"Mexico","institutionCode":"INHS","locality":"6km N Tlapacoyan, Cascada Encantada","stateProvince":"Veracruz"},"geometry":{"type":"Point","coordinates":[-97.216666666667,19.966666666667]}},{"type":"Feature","properties":{"country":"Mexico","institutionCode":"CNC","locality":"10 mi S Malpaso","stateProvince":"Chiapas"},"geometry":{"type":"Point","coordinates":[-92.216666666667,14.966666666667]}},{"type":"Feature","properties":{"country":"Peru","institutionCode":"NCSU","locality":"Chanchamayo [Province]","stateProvince":"Junin"},"geometry":{"type":"Point","coordinates":[-75.316666666667,-11.066666666667]}},{"type":"Feature","properties":{"country":"Peru","institutionCode":"NCSU","locality":"Callanga","stateProvince":"Lima"},"geometry":{"type":"Point","coordinates":[-76.3167,-12.5667]}},{"type":"Feature","properties":{"country":"Trinidad and Tobago","institutionCode":"CNC","locality":"Morne Bleu","stateProvince":"Trinidad"},"geometry":{"type":"Point","coordinates":[-61.3,10.716666666667]}},{"type":"Feature","properties":{"country":"Peru","institutionCode":"INHS","locality":"Parque Nacional Yanachaga-Chemillen, Huampal","stateProvince":"Pasco"},"geometry":{"type":"Point","coordinates":[-75.573611111111,-10.185555555556]}},{"type":"Feature","properties":{"country":"Ecuador","institutionCode":"INHS","locality":"Reserva Etnica Waorani, 1km S Onkone Gare Camp","stateProvince":"Orellana"},"geometry":{"type":"Point","coordinates":[-76.433333333333,-0.65277777777778]}},{"type":"Feature","properties":{"country":"Peru","locality":"Tingo Maria","stateProvince":"Huanuco"},"geometry":{"type":"Point","coordinates":[-75.9833,-9.3]}},{"type":"Feature","properties":{"country":"Peru","institutionCode":"INHS","locality":"Parque Nacional Yanachaga-Chemillen, Huampal","stateProvince":"Pasco"},"geometry":{"type":"Point","coordinates":[-75.573611111111,-10.185555555556]}},{"type":"Feature","properties":{"country":"Bolivia","institutionCode":"INHS","locality":"Villa Tunari","stateProvince":"Cochabamba"},"geometry":{"type":"Point","coordinates":[-65.433333333333,-17]}},{"type":"Feature","properties":{"country":"Ecuador","institutionCode":"INHS","locality":"Yasuni National Park, Tiputini Biodiversity Station","stateProvince":"Orellana"},"geometry":{"type":"Point","coordinates":[-76.144166666667,-0.63194444444444]}},{"type":"Feature","properties":{"country":"Peru","institutionCode":"INHS","locality":"5 km ENE Villa Rica","stateProvince":"Pasco"},"geometry":{"type":"Point","coordinates":[-75.244722222222,-10.734166666667]}},{"type":"Feature","properties":{"country":"Peru","institutionCode":"INHS","locality":"20km W Oxapampa","stateProvince":"Pasco"},"geometry":{"type":"Point","coordinates":[-75.466388888889,-10.710833333333]}},{"type":"Feature","properties":{"country":"Peru","institutionCode":"INHS","locality":"5km ENE Villa Rica","stateProvince":"Pasco"},"geometry":{"type":"Point","coordinates":[-75.244722222222,-10.734166666667]}},{"type":"Feature","properties":{"country":"Peru","institutionCode":"INHS","locality":"5 km ENE Villa Rica","stateProvince":"Pasco"},"geometry":{"type":"Point","coordinates":[-75.244722222222,-10.734166666667]}},{"type":"Feature","properties":{"country":"Peru","institutionCode":"INHS","locality":"5 km ENE Villa Rica","stateProvince":"Pasco"},"geometry":{"type":"Point","coordinates":[-75.244722222222,-10.734166666667]}},{"type":"Feature","properties":{"country":"Peru","institutionCode":"INHS","locality":"5 km ENE Villa Rica","stateProvince":"Pasco"},"geometry":{"type":"Point","coordinates":[-75.244722222222,-10.734166666667]}},{"type":"Feature","properties":{"country":"Peru","institutionCode":"INHS","locality":"20km W Oxapampa","stateProvince":"Pasco"},"geometry":{"type":"Point","coordinates":[-75.466388888889,-10.710833333333]}},{"type":"Feature","properties":{"country":"Peru","institutionCode":"INHS","locality":"12km NW San Ramon","stateProvince":"Junin"},"geometry":{"type":"Point","coordinates":[-75.409444444444,-11.054166666667]}},{"type":"Feature","properties":{"country":"Peru","institutionCode":"INHS","locality":"Parque Nacional Yanachaga-Chemillen, San Alberto Valley","stateProvince":"Pasco"},"geometry":{"type":"Point","coordinates":[-75.35,-10.533333333333]}},{"type":"Feature","properties":{"country":"Peru","institutionCode":"INHS","locality":"12km NW San Ramon","stateProvince":"Junin"},"geometry":{"type":"Point","coordinates":[-75.409444444444,-11.054166666667]}},{"type":"Feature","properties":{"country":"Peru","institutionCode":"INHS","locality":"12km NW San Ramon","stateProvince":"Junin"},"geometry":{"type":"Point","coordinates":[-75.409444444444,-11.054166666667]}},{"type":"Feature","properties":{"country":"Peru","institutionCode":"INHS","locality":"Parque Nacional Yanachaga-Chemillen, Huampal","stateProvince":"Pasco"},"geometry":{"type":"Point","coordinates":[-75.573611111111,-10.185555555556]}},{"type":"Feature","properties":{"country":"Peru","institutionCode":"INHS","locality":"12km NW San Ramon","stateProvince":"Junin"},"geometry":{"type":"Point","coordinates":[-75.409444444444,-11.054166666667]}},{"type":"Feature","properties":{"country":"Peru","institutionCode":"INHS","locality":"12km NW San Ramon","stateProvince":"Junin"},"geometry":{"type":"Point","coordinates":[-75.409444444444,-11.054166666667]}},{"type":"Feature","properties":{"country":"Mexico","institutionCode":"USNM","locality":"Orizaba","stateProvince":"Veracruz"},"geometry":{"type":"Point","coordinates":[-97.1,18.85]}},{"type":"Feature","properties":{"country":"Mexico","institutionCode":"CNC","locality":"Route 131, 178 km S. of Oaxaca [de Juarez]","stateProvince":"Oaxaca"},"geometry":{"type":"Point","coordinates":[-96.7167,17.05]}},{"type":"Feature","properties":{"country":"Mexico","institutionCode":"TAMU","locality":"Municipio de Gomez Farias, Rancho del Cielo","stateProvince":"Tamaulipas"},"geometry":{"type":"Point","coordinates":[-99.45,23]}},{"type":"Feature","properties":{"country":"Mexico","institutionCode":"INHS","locality":"3km NE Bochil, rt. 195 km#204","stateProvince":"Chiapas"},"geometry":{"type":"Point","coordinates":[-92.833333333333,17]}},{"type":"Feature","properties":{"country":"Mexico","institutionCode":"CNC","locality":"5 mi SW of El Bosque","stateProvince":"Chiapas"},"geometry":{"type":"Point","coordinates":[-92.7333,17.0667]}},{"type":"Feature","properties":{"country":"Peru","institutionCode":"INHS","locality":"Parque Nacional Yanachaga-Chemillen, Huampal","stateProvince":"Pasco"},"geometry":{"type":"Point","coordinates":[-75.573611111111,-10.185555555556]}},{"type":"Feature","properties":{"country":"Peru","institutionCode":"NCSU","locality":"Callanga","stateProvince":"Lima"},"geometry":{"type":"Point","coordinates":[-76.3167,-12.5667]}},{"type":"Feature","properties":{"country":"Brazil","institutionCode":"NCSU","locality":"Nova Teutonia","stateProvince":"Santa Catarina"},"geometry":{"type":"Point","coordinates":[-52.4,-27.05]}},{"type":"Feature","properties":{"country":"Brazil","institutionCode":"NCSU","locality":"Nova Teutonia","stateProvince":"Santa Catarina"},"geometry":{"type":"Point","coordinates":[-52.4,-27.05]}},{"type":"Feature","properties":{"country":"Peru","institutionCode":"AMNH","locality":"Tarapoto Region","stateProvince":"Loreto"},"geometry":{"type":"Point","coordinates":[-74.1167,-2.3167]}},{"type":"Feature","properties":{"country":"Peru","institutionCode":"FSCA","locality":"Explorama Lodge, 50 mi NE Iquitos on Amazon river","stateProvince":"Loreto"},"geometry":{"type":"Point","coordinates":[-72.734722222222,-3.2361111111111]}},{"type":"Feature","properties":{"country":"Peru","institutionCode":"INHS","locality":"Rio Tambopata Reserve, 30km W Pto. Maldonado","stateProvince":"Madre de Dios"},"geometry":{"type":"Point","coordinates":[-69.283333333333,-12.833333333333]}},{"type":"Feature","properties":{"country":"Guyana","institutionCode":"CDFA","locality":"Kartabo","stateProvince":"Cuyuni-Mazaruni"},"geometry":{"type":"Point","coordinates":[-59.166666666667,6.6333333333333]}},{"type":"Feature","properties":{"country":"French Guiana","institutionCode":"UKL","locality":"33km SE Roura, on Kaw Rd."},"geometry":{"type":"Point","coordinates":[-52.183333333333,4.5666666666667]}},{"type":"Feature","properties":{"country":"French Guiana","institutionCode":"UKL","locality":"14km E of N2, on rd to Degrad Correze"},"geometry":{"type":"Point","coordinates":[-52.333333333333,4.5]}},{"type":"Feature","properties":{"country":"Guyana","institutionCode":"CDFA","locality":"Kartabo","stateProvince":"Cuyuni-Mazaruni"},"geometry":{"type":"Point","coordinates":[-59.166666666667,6.6333333333333]}},{"type":"Feature","properties":{"country":"Brazil","locality":"Rio de Janeiro","stateProvince":"Rio de Janeiro"},"geometry":{"type":"Point","coordinates":[-43.2333,-22.9]}},{"type":"Feature","properties":{"country":"Brazil","institutionCode":"USNM","locality":"Santarem","stateProvince":"Para"},"geometry":{"type":"Point","coordinates":[-46.983,-0.95]}},{"type":"Feature","properties":{"country":"Brazil","locality":"Santarem","stateProvince":"Para"},"geometry":{"type":"Point","coordinates":[-46.983,-0.95]}},{"type":"Feature","properties":{"country":"Brazil","institutionCode":"CMNH","locality":"Rio de Janeiro","stateProvince":"Rio de Janeiro"},"geometry":{"type":"Point","coordinates":[-43.2333,-22.9]}},{"type":"Feature","properties":{"country":"Trinidad and Tobago","institutionCode":"CNC","locality":"Saugre-Grande [Sangre Grande]","stateProvince":"Trinidad"},"geometry":{"type":"Point","coordinates":[-61.1167,10.5833]}},{"type":"Feature","properties":{"country":"Ecuador","institutionCode":"BMNH","locality":"Cachabi[e]","stateProvince":"Esmeraldas"},"geometry":{"type":"Point","coordinates":[-78.8,0.96666666666667]}},{"type":"Feature","properties":{"country":"Ecuador","institutionCode":"BMNH","locality":"Cachabi[e]","stateProvince":"Esmeraldas"},"geometry":{"type":"Point","coordinates":[-78.8,0.96666666666667]}},{"type":"Feature","properties":{"country":"Ecuador","institutionCode":"MNHN","locality":"Machachi, Tandapi","stateProvince":"Pichincha"},"geometry":{"type":"Point","coordinates":[-78.567,-0.5]}},{"type":"Feature","properties":{"country":"Panama","institutionCode":"FMNH","locality":"Barro Colorado Island"},"geometry":{"type":"Point","coordinates":[-79.8378,9.1636]}},{"type":"Feature","properties":{"country":"Ecuador","institutionCode":"ZMUH","locality":"Guayaquil","stateProvince":"Guayas"},"geometry":{"type":"Point","coordinates":[-79.9,-2.1667]}},{"type":"Feature","properties":{"country":"Ecuador","institutionCode":"NCSU","locality":"Balzapampa"},"geometry":{"type":"Point","coordinates":[-79.183333333333,-1.7666666666667]}},{"type":"Feature","properties":{"country":"Ecuador","institutionCode":"SMTD","locality":"Guayaquil","stateProvince":"Guayas"},"geometry":{"type":"Point","coordinates":[-79.9,-2.1667]}},{"type":"Feature","properties":{"country":"Ecuador","institutionCode":"USNM","locality":"Guayaquil","stateProvince":"Guayas"},"geometry":{"type":"Point","coordinates":[-79.9,-2.1667]}},{"type":"Feature","properties":{"country":"Venezuela","institutionCode":"INHS","locality":"ca. 15Km SW Guarico","stateProvince":"Lara"},"geometry":{"type":"Point","coordinates":[-69.85,9.5833333333333]}},{"type":"Feature","properties":{"country":"Brazil","institutionCode":"MNRJ","locality":"Maromba, Itatiaia","stateProvince":"Rio de Janeiro"},"geometry":{"type":"Point","coordinates":[-43.164,-22.702]}},{"type":"Feature","properties":{"country":"Peru","institutionCode":"INHS","locality":"Parque Nacional Yanachaga-Chemillen, Huampal","stateProvince":"Pasco"},"geometry":{"type":"Point","coordinates":[-75.573611111111,-10.185555555556]}},{"type":"Feature","properties":{"country":"Peru","institutionCode":"INHS","locality":"Parque Nacional Yanachaga-Chemillen, Huampal","stateProvince":"Pasco"},"geometry":{"type":"Point","coordinates":[-75.573611111111,-10.185555555556]}},{"type":"Feature","properties":{"country":"Bolivia","locality":"Ixiamas","stateProvince":"La Paz"},"geometry":{"type":"Point","coordinates":[-68.15,-13.75]}},{"type":"Feature","properties":{"country":"Peru","locality":"Tingo Maria","stateProvince":"Huanuco"},"geometry":{"type":"Point","coordinates":[-75.9833,-9.3]}},{"type":"Feature","properties":{"country":"Peru","institutionCode":"AMNH","locality":"Achinamiza [sic!]","stateProvince":"San Martin"},"geometry":{"type":"Point","coordinates":[-75.9,-6.4167]}},{"type":"Feature","properties":{"country":"Ecuador","institutionCode":"INHS","locality":"Tiputini Biodiversity Station, nr. Yasuni National Park","stateProvince":"Orellana"},"geometry":{"type":"Point","coordinates":[-76.144166666667,-0.63194444444444]}},{"type":"Feature","properties":{"country":"Brazil","institutionCode":"NHRS","locality":"Fonteboa","stateProvince":"Amazonas"},"geometry":{"type":"Point","coordinates":[-66.0167,-2.534]}},{"type":"Feature","properties":{"country":"Brazil","institutionCode":"NHRS","locality":"Fonteboa","stateProvince":"Amazonas"},"geometry":{"type":"Point","coordinates":[-66.0167,-2.534]}},{"type":"Feature","properties":{"country":"Ecuador","institutionCode":"INHS","locality":"Reserva Etnica Waorani, Onkone Gare Camp","stateProvince":"Orellana"},"geometry":{"type":"Point","coordinates":[-76.433333333333,-0.65277777777778]}},{"type":"Feature","properties":{"country":"Costa Rica","institutionCode":"INHS","locality":"San Vito, Las Cruces Botanical Gardens","stateProvince":"Puntarenas"},"geometry":{"type":"Point","coordinates":[-82.961666666667,8.7861111111111]}},{"type":"Feature","properties":{"country":"Ecuador","institutionCode":"USNM","locality":"Sierrazul, SW of Baeza","stateProvince":"Napo"},"geometry":{"type":"Point","coordinates":[-77.916666666667,-0.66666666666667]}},{"type":"Feature","properties":{"country":"Ecuador","institutionCode":"USNM","locality":"Banos, Yunguillas","stateProvince":"Tungurahua"},"geometry":{"type":"Point","coordinates":[-78.3,-1.3833333333333]}},{"type":"Feature","properties":{"country":"Ecuador","institutionCode":"USNM","locality":"Banos, Rio Blanco","stateProvince":"[Tungurahua?]"},"geometry":{"type":"Point","coordinates":[-78.4167,-1.4]}},{"type":"Feature","properties":{"country":"Ecuador","locality":"Banos","stateProvince":"[Tungurahua?]"},"geometry":{"type":"Point","coordinates":[-78.4167,-1.4]}},{"type":"Feature","properties":{"country":"Argentina","institutionCode":"INHS","locality":"3km N Laguna del Monte","stateProvince":"Buenos Aires"},"geometry":{"type":"Point","coordinates":[-62.466666666667,-36.983333333333]}},{"type":"Feature","properties":{"country":"Uruguay","institutionCode":"INHS","locality":"Salto","stateProvince":"Salto"},"geometry":{"type":"Point","coordinates":[-57.9667,-31.3834]}},{"type":"Feature","properties":{"country":"Brazil","institutionCode":"MNRJ","locality":"Sao Francisco de Assis, Fazenda Cerro Negro","stateProvince":"Rio Grande do Sul"},"geometry":{"type":"Point","coordinates":[-55.1334,-29.55]}},{"type":"Feature","properties":{"country":"Brazil","institutionCode":"INHS","locality":"Sao Francisco de Assis, Fazenda Cerro Negro","stateProvince":"Rio Grande do Sul"},"geometry":{"type":"Point","coordinates":[-55.1334,-29.55]}},{"type":"Feature","properties":{"country":"Panama","institutionCode":"CAS","locality":"Gatun"},"geometry":{"type":"Point","coordinates":[-79.9175,9.2706]}},{"type":"Feature","properties":{"country":"Panama","institutionCode":"CAS","locality":"Barro Colorado Island"},"geometry":{"type":"Point","coordinates":[-79.8378,9.1636]}},{"type":"Feature","properties":{"country":"Panama","institutionCode":"NCSU","locality":"Gatun, Canal Zone"},"geometry":{"type":"Point","coordinates":[-79.9175,9.2706]}},{"type":"Feature","properties":{"country":"Panama","institutionCode":"USNM","locality":"Barro Colorado Island"},"geometry":{"type":"Point","coordinates":[-79.8378,9.1636]}},{"type":"Feature","properties":{"country":"Costa Rica","institutionCode":"INHS","locality":"Parque Nacional Braulio Carrillo","stateProvince":"Heredia"},"geometry":{"type":"Point","coordinates":[-83.936111111111,10.161388888889]}},{"type":"Feature","properties":{"country":"Peru","institutionCode":"INHS","locality":"8km S Tingo Maria, Pte. Cuevas","stateProvince":"Huanuco"},"geometry":{"type":"Point","coordinates":[-75.992222222222,-9.3575]}},{"type":"Feature","properties":{"country":"Ecuador","institutionCode":"INHS","locality":"Reserva Etnica Waorani, Onkone Gare Camp","stateProvince":"Orellana"},"geometry":{"type":"Point","coordinates":[-76.433333333333,-0.65277777777778]}},{"type":"Feature","properties":{"country":"Peru","institutionCode":"UKL","locality":"Tambopata Reserve Zone, Research Center on Rio Tambopata","stateProvince":"Madre de Dios"},"geometry":{"type":"Point","coordinates":[-69.616666666667,-13.133333333333]}},{"type":"Feature","properties":{"country":"Ecuador","institutionCode":"UNSM","locality":"Misahualli Jungle lodge area, jct. Rio Napo and R. Misahualli","stateProvince":"Napo"},"geometry":{"type":"Point","coordinates":[-77.663611111111,-1.0344444444444]}},{"type":"Feature","properties":{"country":"Ecuador","institutionCode":"INHS","locality":"Tiputini Biodiversity Station, nr. Yasuni National Park","stateProvince":"Orellana"},"geometry":{"type":"Point","coordinates":[-76.144166666667,-0.63194444444444]}},{"type":"Feature","properties":{"country":"Brazil","institutionCode":"NCSU","locality":"Corupa","stateProvince":"Santa Catarina"},"geometry":{"type":"Point","coordinates":[-49.234,-26.434]}},{"type":"Feature","properties":{"country":"Brazil","institutionCode":"NCSU","locality":"Campo Bello","stateProvince":"Santa Catarina"},"geometry":{"type":"Point","coordinates":[-50.75,-27.9]}},{"type":"Feature","properties":{"country":"Brazil","institutionCode":"MNHN","locality":"Rio de Janeiro","stateProvince":"Rio de Janeiro"},"geometry":{"type":"Point","coordinates":[-43.2334,-22.9]}},{"type":"Feature","properties":{"country":"Colombia","institutionCode":"NCSU","locality":"Bogota","stateProvince":"Cundinamarca"},"geometry":{"type":"Point","coordinates":[-74.0834,4.6]}},{"type":"Feature","properties":{"country":"Peru","institutionCode":"INHS","locality":"Rio Tambopata Reserve, 30km W Pto. Maldonado","stateProvince":"Madre de Dios"},"geometry":{"type":"Point","coordinates":[-69.283333333333,-12.833333333333]}},{"type":"Feature","properties":{"country":"Ecuador","institutionCode":"INHS","locality":"Reserva Etnica Waorani, Onkone Gare Camp","stateProvince":"Orellana"},"geometry":{"type":"Point","coordinates":[-76.433333333333,-0.65277777777778]}},{"type":"Feature","properties":{"country":"Ecuador","institutionCode":"INHS","locality":"Reserva Etnica Waorani, Onkone Gare Camp","stateProvince":"Orellana"},"geometry":{"type":"Point","coordinates":[-76.433333333333,-0.65277777777778]}},{"type":"Feature","properties":{"country":"Ecuador","institutionCode":"INHS","locality":"Tiputini Biodiversity Station, nr. Yasuni National Park","stateProvince":"Orellana"},"geometry":{"type":"Point","coordinates":[-76.144166666667,-0.63194444444444]}},{"type":"Feature","properties":{"country":"Ecuador","institutionCode":"INHS","locality":"Reserva Etnica Waorani, Onkone Gare Camp","stateProvince":"Orellana"},"geometry":{"type":"Point","coordinates":[-76.433333333333,-0.65277777777778]}},{"type":"Feature","properties":{"country":"Ecuador","institutionCode":"INHS","locality":"Reserva Etnica Waorani, Onkone Gare Camp","stateProvince":"Orellana"},"geometry":{"type":"Point","coordinates":[-76.433333333333,-0.65277777777778]}},{"type":"Feature","properties":{"country":"Ecuador","institutionCode":"INHS","locality":"Reserva Etnica Waorani, Onkone Gare Camp","stateProvince":"Orellana"},"geometry":{"type":"Point","coordinates":[-76.433333333333,-0.65277777777778]}},{"type":"Feature","properties":{"country":"Trinidad and Tobago","institutionCode":"CNC","locality":"Tunapuna","stateProvince":"Trinidad"},"geometry":{"type":"Point","coordinates":[-61.3833,10.6333]}},{"type":"Feature","properties":{"country":"Brazil","institutionCode":"MPEG","locality":"Porto Santana","stateProvince":"Amapa"},"geometry":{"type":"Point","coordinates":[-51.1833,-0.05]}},{"type":"Feature","properties":{"country":"Brazil","institutionCode":"MNRJ","locality":"Linhares","stateProvince":"Espirito Santo"},"geometry":{"type":"Point","coordinates":[-40.0667,-19.4167]}},{"type":"Feature","properties":{"country":"Brazil","institutionCode":"MNRJ","locality":"Ilheus","stateProvince":"Bahia"},"geometry":{"type":"Point","coordinates":[-39.0333,-14.8167]}},{"type":"Feature","properties":{"country":"Brazil","institutionCode":"MNRJ","locality":"Tefe","stateProvince":"Amazonas"},"geometry":{"type":"Point","coordinates":[-64.7,-3.3667]}},{"type":"Feature","properties":{"country":"Brazil","institutionCode":"MNRJ","locality":"Tabatinga","stateProvince":"Amazonas"},"geometry":{"type":"Point","coordinates":[-69.9422,-4.2408]}},{"type":"Feature","properties":{"country":"French Guyana","institutionCode":"CNC","locality":"[Saint-Laurent du] Maroni"},"geometry":{"type":"Point","coordinates":[-54.0333,5.5]}},{"type":"Feature","properties":{"country":"Brazil","institutionCode":"MNRJ","locality":"Manaus","stateProvince":"Amazonas"},"geometry":{"type":"Point","coordinates":[-60.0253,-3.1133]}},{"type":"Feature","properties":{"country":"Brazil","institutionCode":"MPEG","locality":"Ouro Preto d'Oeste","stateProvince":"Rondonia"},"geometry":{"type":"Point","coordinates":[-62.3,-10.66]}},{"type":"Feature","properties":{"country":"Peru","institutionCode":"INHS","locality":"Huampal","stateProvince":"Pasco"},"geometry":{"type":"Point","coordinates":[-75.573,-10.185]}},{"type":"Feature","properties":{"country":"Ecuador","institutionCode":"INHS","locality":"Tiputini Biodiversity Station, nr. Yasuni National Park","stateProvince":"Orellana"},"geometry":{"type":"Point","coordinates":[-76.144166666667,-0.63194444444444]}},{"type":"Feature","properties":{"country":"Brazil","institutionCode":"MNRJ","locality":"Itacoatiara","stateProvince":"Amazonas"},"geometry":{"type":"Point","coordinates":[-58.4333,-3.05]}},{"type":"Feature","properties":{"country":"Brazil","institutionCode":"MNRJ","locality":"Benjamim Constant","stateProvince":"Amazonas"},"geometry":{"type":"Point","coordinates":[-70.0297,-4.3744]}},{"type":"Feature","properties":{"country":"Brazil","institutionCode":"MNRJ","locality":"Ouro Preto d'Oeste","stateProvince":"Rondonia"},"geometry":{"type":"Point","coordinates":[-62.3,-10.66]}},{"type":"Feature","properties":{"country":"Brazil","institutionCode":"MPEG","locality":"Serra do Navio","stateProvince":"Amapa"},"geometry":{"type":"Point","coordinates":[-52.05,0.9833]}},{"type":"Feature","properties":{"country":"Brazil","institutionCode":"MNRJ","locality":"Manaus","stateProvince":"Amazonas"},"geometry":{"type":"Point","coordinates":[-60.0253,-3.1133]}},{"type":"Feature","properties":{"country":"Brazil","institutionCode":"MPEG","locality":"Boa Vista","stateProvince":"Para"},"geometry":{"type":"Point","coordinates":[-55.1667,-2.4]}},{"type":"Feature","properties":{"country":"Brazil","institutionCode":"MNRJ","locality":"C. Samuel Porto Velho Guapore Rio Jamari","stateProvince":"Rondonia"},"geometry":{"type":"Point","coordinates":[-64.9833,-11.9]}},{"type":"Feature","properties":{"country":"Brazil","institutionCode":"MNRJ","locality":"Petropolis","stateProvince":"Rio de Janeiro"},"geometry":{"type":"Point","coordinates":[-43.1844,-22.51]}},{"type":"Feature","properties":{"country":"Brazil","institutionCode":"MPEG","locality":"Santa Isabel","stateProvince":"Para"},"geometry":{"type":"Point","coordinates":[-50.1833,-1.6833]}},{"type":"Feature","properties":{"country":"Ecuador","institutionCode":"INHS","locality":"Reserva Etnica Waorani, Onkone Gare Camp","stateProvince":"Orellana"},"geometry":{"type":"Point","coordinates":[-76.433333333333,-0.65277777777778]}},{"type":"Feature","properties":{"country":"Brazil","institutionCode":"MPEG","locality":"Paragominas","stateProvince":"Para"},"geometry":{"type":"Point","coordinates":[-47.4833,-2.9667]}},{"type":"Feature","properties":{"country":"Bolivia","institutionCode":"INHS","locality":"Villa Tunari","stateProvince":"Cochabamba"},"geometry":{"type":"Point","coordinates":[-65.433333333333,-17]}},{"type":"Feature","properties":{"country":"Brazil","institutionCode":"MPEG","locality":"Bujaru","stateProvince":"Para"},"geometry":{"type":"Point","coordinates":[-48.0167,-1.5167]}},{"type":"Feature","properties":{"country":"Trinidad and Tobago","institutionCode":"CNC","locality":"Arouca","stateProvince":"Trinidad"},"geometry":{"type":"Point","coordinates":[-61.3333,10.6333]}},{"type":"Feature","properties":{"country":"Brazil","institutionCode":"MPEG","locality":"Benevides","stateProvince":"Para"},"geometry":{"type":"Point","coordinates":[-48.25,-1.3667]}},{"type":"Feature","properties":{"country":"Brazil","institutionCode":"MPEG","locality":"Ouro Preto d'Oeste","stateProvince":"Rondonia"},"geometry":{"type":"Point","coordinates":[-62.3,-10.66]}},{"type":"Feature","properties":{"country":"Brazil","institutionCode":"MPEG","locality":"Benevides","stateProvince":"Para"},"geometry":{"type":"Point","coordinates":[-48.25,-1.3667]}},{"type":"Feature","properties":{"country":"Brazil","institutionCode":"MPEG","locality":"Belem","stateProvince":"Para"},"geometry":{"type":"Point","coordinates":[-48.4833,-1.45]}},{"type":"Feature","properties":{"country":"Brazil","institutionCode":"MPEG","locality":"Ji-Parana","stateProvince":"Rondonia"},"geometry":{"type":"Point","coordinates":[-61.9667,-10.8333]}},{"type":"Feature","properties":{"country":"Peru","institutionCode":"INHS","locality":"Carpish Pass","stateProvince":"Huanuco"},"geometry":{"type":"Point","coordinates":[-76.09,-9.71]}},{"type":"Feature","properties":{"country":"Ecuador","institutionCode":"INHS","locality":"Limoncocha","stateProvince":"Sucumbios"},"geometry":{"type":"Point","coordinates":[-76.583,-0.416]}},{"type":"Feature","properties":{"country":"Peru","institutionCode":"MUSM","locality":"Puerto Maldonado","stateProvince":"Madre de  Dios"},"geometry":{"type":"Point","coordinates":[-69.1833,-12.6]}},{"type":"Feature","properties":{"country":"Brazil","institutionCode":"MNRJ","locality":"Pimenta Bueno","stateProvince":"Rondonia"},"geometry":{"type":"Point","coordinates":[-61.2,-11.65]}},{"type":"Feature","properties":{"country":"Peru","institutionCode":"INHS","locality":"Tingo Maria","stateProvince":"Huanuco"},"geometry":{"type":"Point","coordinates":[-75.98,-9.34]}},{"type":"Feature","properties":{"country":"Brazil","institutionCode":"MNRJ","locality":"Vilhena","stateProvince":"Rondonia"},"geometry":{"type":"Point","coordinates":[-60.1167,-12.7167]}},{"type":"Feature","properties":{"country":"Brazil","institutionCode":"MNRJ","locality":"Vilhena","stateProvince":"Rondonia"},"geometry":{"type":"Point","coordinates":[-60.1167,-12.7167]}},{"type":"Feature","properties":{"country":"Venezuela","institutionCode":"CNC","locality":"Caucagua, Dtto. Acevedo","stateProvince":"Miranda"},"geometry":{"type":"Point","coordinates":[-66.3764,10.285]}},{"type":"Feature","properties":{"country":"Trinidad and Tobago","institutionCode":"MMBC","locality":"Santa Anna [Sain Ann?]","stateProvince":"Trinidad"},"geometry":{"type":"Point","coordinates":[-61.5167,10.667]}},{"type":"Feature","properties":{"country":"Panama","locality":"Barro Colorado Island"},"geometry":{"type":"Point","coordinates":[-79.8378,9.1636]}},{"type":"Feature","properties":{"country":"Colombia","locality":"Gorgona Island","stateProvince":"Cauca"},"geometry":{"type":"Point","coordinates":[-78.216666666667,3.85]}},{"type":"Feature","properties":{"country":"Costa Rica","institutionCode":"CAS","locality":"Osa Peninsula, 3.5 mi S Rincon","stateProvince":"Puntarenas"},"geometry":{"type":"Point","coordinates":[-83.483333333333,8.7]}},{"type":"Feature","properties":{"country":"Costa Rica","institutionCode":"USNM","locality":"Turrialba","stateProvince":"Cartago"},"geometry":{"type":"Point","coordinates":[-83.68334,9.9]}},{"type":"Feature","properties":{"country":"Peru","locality":"Tingo Maria","stateProvince":"Huanuco"},"geometry":{"type":"Point","coordinates":[-75.9833,-9.3]}},{"type":"Feature","properties":{"country":"Ecuador","institutionCode":"INHS","locality":"Tiputini Biodiversity Station, nr. Yasuni National Park","stateProvince":"Orellana"},"geometry":{"type":"Point","coordinates":[-76.144166666667,-0.63194444444444]}},{"type":"Feature","properties":{"country":"Ecuador","institutionCode":"INHS","locality":"Reserva Etnica Waorani, Onkone Gare Camp","stateProvince":"Orellana"},"geometry":{"type":"Point","coordinates":[-76.433333333333,-0.65277777777778]}},{"type":"Feature","properties":{"country":"Brazil","institutionCode":"INHS","locality":"UFMG campus","stateProvince":"Minas Gerais"},"geometry":{"type":"Point","coordinates":[-43.9334,-19.9167]}},{"type":"Feature","properties":{"country":"Ecuador","institutionCode":"CNC","locality":"Rio Napo, Sacha lodge","stateProvince":"Sucumbios"},"geometry":{"type":"Point","coordinates":[-76.083333333333,-0.083333333333333]}},{"type":"Feature","properties":{"country":"Brazil","institutionCode":"BMNH","stateProvince":"Mato Grosso"},"geometry":{"type":"Point","coordinates":[-51.75,-12.816666666667]}},{"type":"Feature","properties":{"country":"Brazil","institutionCode":"BMNH","stateProvince":"Mato Grosso"},"geometry":{"type":"Point","coordinates":[-51.75,-12.833333333333]}},{"type":"Feature","properties":{"country":"Brazil","institutionCode":"USNM","locality":"Londrina","stateProvince":"Parana"},"geometry":{"type":"Point","coordinates":[-51.15,-23.3]}},{"type":"Feature","properties":{"country":"Bolivia","institutionCode":"USNM","locality":"Campamento La Esperanza","stateProvince":"Beni"},"geometry":{"type":"Point","coordinates":[-66.983,-15.833]}},{"type":"Feature","properties":{"country":"Bolivia","institutionCode":"CNC","locality":"Santa Cruz","stateProvince":"Santa Cruz"},"geometry":{"type":"Point","coordinates":[-63.1667,-17.8]}},{"type":"Feature","properties":{"country":"Brazil","institutionCode":"INHS","locality":"Sao Francisco de Assis, Fazenda Cerro Negro","stateProvince":"Rio Grande do Sul"},"geometry":{"type":"Point","coordinates":[-55.1334,-29.55]}},{"type":"Feature","properties":{"country":"Brazil","institutionCode":"MNRJ","locality":"Sao Francisco de Assis, Fazenda Cerro Negro","stateProvince":"Rio Grande do Sul"},"geometry":{"type":"Point","coordinates":[-55.1334,-29.55]}},{"type":"Feature","properties":{"country":"Colombia","institutionCode":"CNC","locality":"Leticia","stateProvince":"Amazonas"},"geometry":{"type":"Point","coordinates":[-69.9406,-4.2153]}},{"type":"Feature","properties":{"country":"Trinidad and Tobago","institutionCode":"CNC","locality":"Maracas V.[illage]","stateProvince":"Trinidad"},"geometry":{"type":"Point","coordinates":[-61.4,10.6833]}},{"type":"Feature","properties":{"country":"Panama","institutionCode":"CNC","locality":"Rio Hato","stateProvince":"Cocle"},"geometry":{"type":"Point","coordinates":[-80.1667,8.3833]}},{"type":"Feature","properties":{"country":"Trinidad and Tobago","institutionCode":"CNC","locality":"Saint Augustine","stateProvince":"Trinidad"},"geometry":{"type":"Point","coordinates":[-61.4,10.65]}},{"type":"Feature","properties":{"country":"Brazil","institutionCode":"MNRJ","locality":"Sao Francisco de Assis, Fazenda Cerro Negro","stateProvince":"Rio Grande do Sul"},"geometry":{"type":"Point","coordinates":[-55.1334,-29.55]}},{"type":"Feature","properties":{"country":"Mexico","institutionCode":"INHS","locality":"6km ESE Tuxcacuesco","stateProvince":"Jalisco"},"geometry":{"type":"Point","coordinates":[-104.01388888889,19.668888888889]}},{"type":"Feature","properties":{"country":"Mexico","institutionCode":"INHS","locality":"6km ESE Tuxcacuesco","stateProvince":"Jalisco"},"geometry":{"type":"Point","coordinates":[-104.01388888889,19.668888888889]}},{"type":"Feature","properties":{"country":"Mexico","institutionCode":"INHS","locality":"6km ESE Tuxcacuesco","stateProvince":"Jalisco"},"geometry":{"type":"Point","coordinates":[-104.01388888889,19.668888888889]}},{"type":"Feature","properties":{"country":"Mexico","institutionCode":"INHS","locality":"6km ESE Tuxcacuesco","stateProvince":"Jalisco"},"geometry":{"type":"Point","coordinates":[-104.01388888889,19.668888888889]}},{"type":"Feature","properties":{"country":"Mexico","institutionCode":"INHS","locality":"ca. Aguacate","stateProvince":"Jalisco"},"geometry":{"type":"Point","coordinates":[-104.10083333333,19.682222222222]}},{"type":"Feature","properties":{"country":"Panama","institutionCode":"CNC","locality":"Boquete","stateProvince":"Chiriqui"},"geometry":{"type":"Point","coordinates":[-82.4333,8.7833]}},{"type":"Feature","properties":{"country":"Mexico","institutionCode":"CNC","locality":"Puerto Vallarta","stateProvince":"Jalisco"},"geometry":{"type":"Point","coordinates":[-105.25,20.6167]}},{"type":"Feature","properties":{"country":"Mexico","institutionCode":"CNC","locality":"Tixtla [de Guerrero]","stateProvince":"Guerrero"},"geometry":{"type":"Point","coordinates":[-99.4333,17.5833]}},{"type":"Feature","properties":{"country":"Costa Rica","institutionCode":"CNC","locality":"Playa Tamarindo","stateProvince":"Guanacaste"},"geometry":{"type":"Point","coordinates":[-85,10]}},{"type":"Feature","properties":{"country":"Mexico","institutionCode":"CNC","locality":"El Sumidero","stateProvince":"Chiapas"},"geometry":{"type":"Point","coordinates":[-93.0667,16.75]}},{"type":"Feature","properties":{"country":"Mexico","institutionCode":"CNC","locality":"Juquila Mixes [San Juan Juquila Mixes]","stateProvince":"Oaxaca"},"geometry":{"type":"Point","coordinates":[-95.9167,16.9667]}},{"type":"Feature","properties":{"country":"Costa Rica","institutionCode":"CNC","locality":"6 km S Santa Elena","stateProvince":"Puntarenas"},"geometry":{"type":"Point","coordinates":[-84.8333,10.3167]}},{"type":"Feature","properties":{"country":"Mexico","institutionCode":"CNC","locality":"Santa Lucia","stateProvince":"Sinaloa"},"geometry":{"type":"Point","coordinates":[-108.3,25.5333]}},{"type":"Feature","properties":{"country":"Mexico","institutionCode":"INHS","locality":"14km ESE Tuxcacuesco","stateProvince":"Jalisco"},"geometry":{"type":"Point","coordinates":[-104.03444444444,19.664444444444]}},{"type":"Feature","properties":{"country":"Belize","institutionCode":"CNC","locality":"Middlesex","stateProvince":"Stann Creek"},"geometry":{"type":"Point","coordinates":[-88.5,17.0167]}},{"type":"Feature","properties":{"country":"Belize","institutionCode":"CNC","locality":"Middlesex","stateProvince":"Stann Creek"},"geometry":{"type":"Point","coordinates":[-88.5,17.0167]}},{"type":"Feature","properties":{"country":"Mexico","institutionCode":"AMNH","locality":"Huajuapan de Leon","stateProvince":"Oaxaca"},"geometry":{"type":"Point","coordinates":[-97.767,17.8]}},{"type":"Feature","properties":{"country":"Mexico","institutionCode":"INHS","locality":"rt. 190 26km SE San Bartolo","stateProvince":"Oaxaca"},"geometry":{"type":"Point","coordinates":[-95.801111111111,16.412777777778]}},{"type":"Feature","properties":{"country":"Mexico","institutionCode":"INHS","locality":"rt. 190 km#180, La Reforma","stateProvince":"Oaxaca"},"geometry":{"type":"Point","coordinates":[-95.774722222222,16.398888888889]}},{"type":"Feature","properties":{"country":"Mexico","institutionCode":"INHS","locality":"rt. 190 km#36, Tulenito","stateProvince":"Oaxaca"},"geometry":{"type":"Point","coordinates":[-94.630555555556,16.552777777778]}},{"type":"Feature","properties":{"country":"Mexico","institutionCode":"INHS","locality":"rt. 195 km#31, 10km NE Chiapa de Corzo","stateProvince":"Chiapas"},"geometry":{"type":"Point","coordinates":[-92.966666666667,16.816666666667]}},{"type":"Feature","properties":{"country":"Mexico","institutionCode":"OSU","locality":"Tierra Colorado[sic!]","stateProvince":"Guerrero"},"geometry":{"type":"Point","coordinates":[-99.5834,17.167]}},{"type":"Feature","properties":{"country":"Mexico","institutionCode":"OSU","locality":"Xaltiangus[sic!]","stateProvince":"Guerrero"},"geometry":{"type":"Point","coordinates":[-99.8333,17.0667]}},{"type":"Feature","properties":{"country":"Brazil","institutionCode":"AMNH","locality":"[Rolandia], Caviuna","stateProvince":"Parana"},"geometry":{"type":"Point","coordinates":[-51.3667,-23.3]}},{"type":"Feature","properties":{"country":"Brazil","institutionCode":"AMNH","locality":"Rolandia","stateProvince":"Parana"},"geometry":{"type":"Point","coordinates":[-51.3667,-23.3]}},{"type":"Feature","properties":{"country":"Mexico","institutionCode":"INHS","locality":"ca. La Huerta","stateProvince":"Jalisco"},"geometry":{"type":"Point","coordinates":[-104.65361111111,19.463055555556]}},{"type":"Feature","properties":{"country":"Mexico","institutionCode":"INHS","locality":"ca. La Huerta","stateProvince":"Jalisco"},"geometry":{"type":"Point","coordinates":[-104.65361111111,19.463055555556]}},{"type":"Feature","properties":{"country":"Mexico","institutionCode":"NCSU","locality":"Jesus Maria","stateProvince":"Nayarit"},"geometry":{"type":"Point","coordinates":[-104.8833333,21.7333333]}},{"type":"Feature","properties":{"country":"Mexico","institutionCode":"NCSU","locality":"Cuernavaca","stateProvince":"Morelos"},"geometry":{"type":"Point","coordinates":[-99.25,18.9167]}},{"type":"Feature","properties":{"country":"Mexico","institutionCode":"KSEM","locality":"10mi S Acaponeta","stateProvince":"Nayarit"},"geometry":{"type":"Point","coordinates":[-105.35,22.483333333333]}},{"type":"Feature","properties":{"country":"Mexico","institutionCode":"INHS","locality":"ca. La Huerta","stateProvince":"Jalisco"},"geometry":{"type":"Point","coordinates":[-104.65361111111,19.463055555556]}},{"type":"Feature","properties":{"country":"Mexico","institutionCode":"NCSU","locality":"Plan de Barrancas","stateProvince":"Jalisco"},"geometry":{"type":"Point","coordinates":[-104.1834,21.034]}},{"type":"Feature","properties":{"country":"Mexico","institutionCode":"INHS","locality":"rt. 54 N Guadalajara km#36","stateProvince":"Jalisco"},"geometry":{"type":"Point","coordinates":[-103.3021,20.8373]}},{"type":"Feature","properties":{"country":"Mexico","institutionCode":"INHS","locality":"rt. 190 km#217, 25km NW Oaxaca","stateProvince":"Oaxaca"},"geometry":{"type":"Point","coordinates":[-96.766666666667,17.216666666667]}},{"type":"Feature","properties":{"country":"Mexico","institutionCode":"OSU","locality":"Buena Vista","stateProvince":"Guerrero"},"geometry":{"type":"Point","coordinates":[-99.4167,18.45]}},{"type":"Feature","properties":{"country":"Mexico","institutionCode":"INHS","locality":"rt. 195 km#31, 10km NE Chiapa de Corzo","stateProvince":"Chiapas"},"geometry":{"type":"Point","coordinates":[-92.966666666667,16.816666666667]}},{"type":"Feature","properties":{"country":"Guatemala","institutionCode":"NCSU","locality":"Yepocapa","stateProvince":"Chimaltenango"},"geometry":{"type":"Point","coordinates":[-90.956945,14.504167]}},{"type":"Feature","properties":{"country":"Mexico","institutionCode":"INHS","locality":"27km S Pichucalco","stateProvince":"Chiapas"},"geometry":{"type":"Point","coordinates":[-93.188888888889,17.419444444444]}},{"type":"Feature","properties":{"country":"Mexico","institutionCode":"OSU","locality":"Tamzunchale","stateProvince":"San Luis Potosi"},"geometry":{"type":"Point","coordinates":[-98.7834,21.267]}},{"type":"Feature","properties":{"country":"Costa Rica","institutionCode":"NCSU","locality":"San Jose","stateProvince":"San Jose"},"geometry":{"type":"Point","coordinates":[-84.0833333,9.9333333]}},{"type":"Feature","properties":{"country":"El Salvador","locality":"San Salvador","stateProvince":"San Salvador"},"geometry":{"type":"Point","coordinates":[-89.2030556,13.7086111]}},{"type":"Feature","properties":{"country":"El Salvador","locality":"Barranca [sic!]","stateProvince":"San Miguel"},"geometry":{"type":"Point","coordinates":[-88.4833333,13.7833333]}},{"type":"Feature","properties":{"country":"El Salvador","locality":"Metapan","stateProvince":"Santa Ana"},"geometry":{"type":"Point","coordinates":[-89.45,14.333]}},{"type":"Feature","properties":{"country":"Brazil","institutionCode":"DZUP","locality":"Cafelandia","stateProvince":"Minas Gerais"},"geometry":{"type":"Point","coordinates":[-49.5833333,-21.8166667]}},{"type":"Feature","properties":{"country":"Brazil","locality":"Viamao","stateProvince":"Rio Grande do Sul"},"geometry":{"type":"Point","coordinates":[-51.033,-30.0833]}},{"type":"Feature","properties":{"country":"Brazil","institutionCode":"DZUP","locality":"Fenix, Reserva Estadual de Vila Rica","stateProvince":"Parana"},"geometry":{"type":"Point","coordinates":[-51.95,-23.9]}},{"type":"Feature","properties":{"country":"Brazil","institutionCode":"DZUP","locality":"Chapeco","stateProvince":"Santa Catarina"},"geometry":{"type":"Point","coordinates":[-52.6,-27.1]}},{"type":"Feature","properties":{"country":"Brazil","institutionCode":"DZUP","locality":"Araraquara","stateProvince":"Sao Paulo"},"geometry":{"type":"Point","coordinates":[-48.1666667,-21.7833333]}},{"type":"Feature","properties":{"country":"Paraguay","institutionCode":"MMBC","locality":"Santa Clara, Jaguaron","stateProvince":"Central"},"geometry":{"type":"Point","coordinates":[-57.7,-25.6333333]}},{"type":"Feature","properties":{"country":"Brazil","institutionCode":"MNRJ","locality":"Niteroi","stateProvince":"Rio de Janeiro"},"geometry":{"type":"Point","coordinates":[-43.0944444,-22.8844444]}},{"type":"Feature","properties":{"country":"Brazil","institutionCode":"DZUP","locality":"Paulo de Faria","stateProvince":"Sao Paulo"},"geometry":{"type":"Point","coordinates":[-49.4,-20.0333333]}},{"type":"Feature","properties":{"country":"Brazil","institutionCode":"DZUP","locality":"Comendador Gomes","stateProvince":"Minas Gerais"},"geometry":{"type":"Point","coordinates":[-49.0833333,-19.6833333]}},{"type":"Feature","properties":{"country":"Brazil","locality":"Porto Alegre","stateProvince":"Rio Grande do Sul"},"geometry":{"type":"Point","coordinates":[-51.2,-30.033333333333]}},{"type":"Feature","properties":{"country":"Brazil","institutionCode":"INHS","locality":"Bebedouro","stateProvince":"Sao Paulo"},"geometry":{"type":"Point","coordinates":[-48.4666667,-20.9333333]}},{"type":"Feature","properties":{"country":"Brazil","institutionCode":"DZUP","locality":"Olimpia","stateProvince":"Sao Paulo"},"geometry":{"type":"Point","coordinates":[-48.9,-20.7333333]}},{"type":"Feature","properties":{"country":"Brazil","institutionCode":"MNRJ","locality":"Rio de Janeiro, Jacarepagua","stateProvince":"Rio de Janeiro"},"geometry":{"type":"Point","coordinates":[-43.2333333,-22.9]}},{"type":"Feature","properties":{"country":"Brazil","institutionCode":"MNRJ","locality":"Rio de Janeiro, Parque Nacional da Tijuca","stateProvince":"Rio de Janeiro"},"geometry":{"type":"Point","coordinates":[-43.2333333,-22.9]}},{"type":"Feature","properties":{"country":"Brazil","institutionCode":"MNRJ","locality":"Ubatuba, Parque Nacional da Serra do Mar, Picinguaba","stateProvince":"Sao Paulo"},"geometry":{"type":"Point","coordinates":[-45.0666667,-23.4333333]}},{"type":"Feature","properties":{"country":"Brazil","institutionCode":"MNRJ","locality":"Petropolis","stateProvince":"Rio de Janeiro"},"geometry":{"type":"Point","coordinates":[-43.1844444,-22.5108333]}},{"type":"Feature","properties":{"country":"U.S.A.","institutionCode":"UDCC","locality":"Arcola, Sandy Hollow","stateProvince":"Louisiana"},"geometry":{"type":"Point","coordinates":[-90.51028,30.77639]}},{"type":"Feature","properties":{"country":"U.S.A.","institutionCode":"UDCC","locality":"Elmodel, Elmodel WMA","stateProvince":"Georgia"},"geometry":{"type":"Point","coordinates":[-84.4725,31.34556]}},{"type":"Feature","properties":{"country":"U.S.A.","institutionCode":"UDCC","locality":"Columbia, roadside field","stateProvince":"South Carolina"},"geometry":{"type":"Point","coordinates":[-81.035,34.00056]}},{"type":"Feature","properties":{"country":"U.S.A.","institutionCode":"UDCC","locality":"GSMNP Cades Cove","stateProvince":"Tennessee"},"geometry":{"type":"Point","coordinates":[-83.838055555556,35.591944444444]}},{"type":"Feature","properties":{"country":"U.S.A.","institutionCode":"UDCC","locality":"n. Lake Placid, Archbold research sta.","stateProvince":"Florida"},"geometry":{"type":"Point","coordinates":[-81.3631,27.2928]}},{"type":"Feature","properties":{"country":"U.S.A.","institutionCode":"UDCC","locality":"Raleigh","stateProvince":"North Carolina"},"geometry":{"type":"Point","coordinates":[-78.6389,35.7719]}},{"type":"Feature","properties":{"country":"U.S.A.","institutionCode":"UDCC","locality":"Newark, White Clay Cr.","stateProvince":"Delaware"},"geometry":{"type":"Point","coordinates":[-75.75,39.68361]}},{"type":"Feature","properties":{"country":"Costa Rica","institutionCode":"INHS","locality":"San Jose, San Jose University","stateProvince":"San Jose"},"geometry":{"type":"Point","coordinates":[-84.0834,9.934]}},{"type":"Feature","properties":{"country":"Mexico","institutionCode":"INHS","locality":"Las Cumbres, 5km N rt 105, 3.5km W La Union","stateProvince":"Puebla"},"geometry":{"type":"Point","coordinates":[-97.8,20.233333333333]}},{"type":"Feature","properties":{"country":"Mexico","institutionCode":"INHS","locality":"rt. 190 km#156, 15.5km SE San Bartolo","stateProvince":"Oaxaca"},"geometry":{"type":"Point","coordinates":[-95.860555555556,16.450555555556]}},{"type":"Feature","properties":{"country":"Mexico","institutionCode":"INHS","locality":"Las Cumbres, 5km N rt 105, 3.5km W La Union","stateProvince":"Puebla"},"geometry":{"type":"Point","coordinates":[-97.8,20.233333333333]}},{"type":"Feature","properties":{"country":"Mexico","institutionCode":"INHS","locality":"Las Cumbres, 5km N rt 105, 3.5km W La Union","stateProvince":"Puebla"},"geometry":{"type":"Point","coordinates":[-97.8,20.233333333333]}},{"type":"Feature","properties":{"country":"Mexico","institutionCode":"INHS","locality":"rt. 195 km#31, 10km NE Chiapa de Corzo","stateProvince":"Chiapas"},"geometry":{"type":"Point","coordinates":[-92.966666666667,16.816666666667]}},{"type":"Feature","properties":{"country":"Mexico","institutionCode":"INHS","locality":"Las Cumbres, 5km N rt 105, 3.5km W La Union","stateProvince":"Puebla"},"geometry":{"type":"Point","coordinates":[-97.8,20.233333333333]}},{"type":"Feature","properties":{"country":"Mexico","institutionCode":"INHS","locality":"rt. 54 21km N Guadalajara","stateProvince":"Jalisco"},"geometry":{"type":"Point","coordinates":[-103.3431,20.828]}},{"type":"Feature","properties":{"country":"Brazil","institutionCode":"MPEG","locality":"Belem","stateProvince":"Para"},"geometry":{"type":"Point","coordinates":[-48.4833,-1.45]}},{"type":"Feature","properties":{"country":"Brazil","institutionCode":"DCMB","locality":"Ilha de Maraca, Rio Uraricoera","stateProvince":"Roraima"},"geometry":{"type":"Point","coordinates":[-50.006666666667,2]}},{"type":"Feature","properties":{"country":"Brazil","institutionCode":"MPEG","locality":"Sao Joao de Pirabas","stateProvince":"Para"},"geometry":{"type":"Point","coordinates":[-47.1666667,-0.7666667]}},{"type":"Feature","properties":{"country":"Brazil","institutionCode":"MPEG","locality":"Belem, Campus do MPEG","stateProvince":"Para"},"geometry":{"type":"Point","coordinates":[-48.4833,-1.45]}},{"type":"Feature","properties":{"country":"Brazil","institutionCode":"MNHN","locality":"Santo Antonio do Taua","stateProvince":"Para"},"geometry":{"type":"Point","coordinates":[-48.1333333,-1.1833333]}},{"type":"Feature","properties":{"country":"Brazil","locality":"Santarem","stateProvince":"Para"},"geometry":{"type":"Point","coordinates":[-46.983,-0.95]}},{"type":"Feature","properties":{"country":"U.S.A.","institutionCode":"INHS","locality":"Palm Springs","stateProvince":"California"},"geometry":{"type":"Point","coordinates":[-116.5,33.816666666667]}},{"type":"Feature","properties":{"country":"U.S.A.","institutionCode":"INHS","locality":"Palm Springs","stateProvince":"California"},"geometry":{"type":"Point","coordinates":[-116.5,33.816666666667]}},{"type":"Feature","properties":{"country":"U.S.A.","institutionCode":"INHS","locality":"Palm Springs","stateProvince":"California"},"geometry":{"type":"Point","coordinates":[-116.5,33.816666666667]}},{"type":"Feature","properties":{"country":"U.S.A.","institutionCode":"INHS","locality":"Palm Springs","stateProvince":"California"},"geometry":{"type":"Point","coordinates":[-116.5,33.816666666667]}},{"type":"Feature","properties":{"country":"U.S.A.","institutionCode":"UDCC","locality":"Tucson","stateProvince":"Arizona"},"geometry":{"type":"Point","coordinates":[-110.9258,32.2217]}},{"type":"Feature","properties":{"country":"Mexico","institutionCode":"USNM","locality":"Tamazunchale","stateProvince":"San Luis Potosi"},"geometry":{"type":"Point","coordinates":[-98.7833333,21.2666667]}},{"type":"Feature","properties":{"country":"U.S.A.","institutionCode":"INHS","locality":"Monticello","stateProvince":"Florida"},"geometry":{"type":"Point","coordinates":[-83.8703,30.545]}},{"type":"Feature","properties":{"country":"U.S.A.","institutionCode":"UDCC","locality":"Benton, hunting lease","stateProvince":"Louisiana"},"geometry":{"type":"Point","coordinates":[-93.74167,32.69472]}},{"type":"Feature","properties":{"country":"U.S.A.","institutionCode":"AMNH","locality":"Hazen","stateProvince":"Alabama"},"geometry":{"type":"Point","coordinates":[-87.20389,32.34]}},{"type":"Feature","properties":{"country":"U.S.A.","institutionCode":"USNM","locality":"Brownsville","stateProvince":"Texas"},"geometry":{"type":"Point","coordinates":[-97.49722,25.90139]}},{"type":"Feature","properties":{"country":"U.S.A.","institutionCode":"UDCC","locality":"Baton Rouge, n. LSU campus","stateProvince":"Louisiana"},"geometry":{"type":"Point","coordinates":[-91.15444,30.45056]}},{"type":"Feature","properties":{"country":"U.S.A.","institutionCode":"TAMU","locality":"ca. 8 mi WNW Burnet Reveille Peak Ranch","stateProvince":"Texas"},"geometry":{"type":"Point","coordinates":[-98.355,30.789444444444]}},{"type":"Feature","properties":{"country":"U.S.A.","institutionCode":"UDCC","locality":"Baton Rouge","stateProvince":"Louisiana"},"geometry":{"type":"Point","coordinates":[-91.15444,30.45056]}},{"type":"Feature","properties":{"country":"U.S.A.","institutionCode":"TAMU","locality":"BBNP Pine Canyon camp area #4","stateProvince":"Texas"},"geometry":{"type":"Point","coordinates":[-103.23444444444,29.266388888889]}},{"type":"Feature","properties":{"country":"U.S.A.","institutionCode":"USNM","locality":"Jesup","stateProvince":"Georgia"},"geometry":{"type":"Point","coordinates":[-81.88556,31.60722]}},{"type":"Feature","properties":{"country":"U.S.A.","institutionCode":"INHS","locality":"Leesburg","stateProvince":"Florida"},"geometry":{"type":"Point","coordinates":[-81.87806,28.81056]}},{"type":"Feature","properties":{"country":"U.S.A.","institutionCode":"TAMU","locality":"College Station, Riley Estate","stateProvince":"Texas"},"geometry":{"type":"Point","coordinates":[-96.253333333333,30.588333333333]}},{"type":"Feature","properties":{"country":"U.S.A.","institutionCode":"UDCC","locality":"Bayou Paul","stateProvince":"Louisiana"},"geometry":{"type":"Point","coordinates":[-91.10917,30.31194]}},{"type":"Feature","properties":{"country":"U.S.A.","institutionCode":"INHS","locality":"Brownsville","stateProvince":"Texas"},"geometry":{"type":"Point","coordinates":[-97.49722,25.90139]}},{"type":"Feature","properties":{"country":"U.S.A.","institutionCode":"INHS","locality":"Monticello","stateProvince":"Florida"},"geometry":{"type":"Point","coordinates":[-83.8703,30.545]}},{"type":"Feature","properties":{"country":"U.S.A.","institutionCode":"INHS","locality":"Monticello","stateProvince":"Florida"},"geometry":{"type":"Point","coordinates":[-83.8703,30.545]}},{"type":"Feature","properties":{"country":"U.S.A.","institutionCode":"UDCC","locality":"Arcola","stateProvince":"Louisiana"},"geometry":{"type":"Point","coordinates":[-90.51028,30.77639]}},{"type":"Feature","properties":{"country":"U.S.A.","institutionCode":"INHS","locality":"Fort Myers","stateProvince":"Florida"},"geometry":{"type":"Point","coordinates":[-81.8725,26.64028]}},{"type":"Feature","properties":{"country":"U.S.A.","institutionCode":"AMNH","locality":"Montgomery, Picket springs","stateProvince":"Alabama"},"geometry":{"type":"Point","coordinates":[-86.3,32.36667]}},{"type":"Feature","properties":{"country":"U.S.A.","institutionCode":"INHS","locality":"Fort Myers","stateProvince":"Florida"},"geometry":{"type":"Point","coordinates":[-81.8725,26.64028]}},{"type":"Feature","properties":{"country":"Mexico","institutionCode":"USNM","locality":"Tamazunchale","stateProvince":"San Luis Potosi"},"geometry":{"type":"Point","coordinates":[-98.7833333,21.2666667]}},{"type":"Feature","properties":{"country":"U.S.A.","institutionCode":"INHS","locality":"Monticello","stateProvince":"Florida"},"geometry":{"type":"Point","coordinates":[-83.8703,30.545]}},{"type":"Feature","properties":{"country":"Mexico","institutionCode":"USNM","locality":"Tamazunchale","stateProvince":"San Luis Potosi"},"geometry":{"type":"Point","coordinates":[-98.7833333,21.2666667]}},{"type":"Feature","properties":{"country":"U.S.A.","institutionCode":"INHS","locality":"Gainesville","stateProvince":"Florida"},"geometry":{"type":"Point","coordinates":[-82.325,29.65139]}},{"type":"Feature","properties":{"country":"U.S.A.","institutionCode":"INHS","locality":"Brownsville","stateProvince":"Texas"},"geometry":{"type":"Point","coordinates":[-97.49722,25.90139]}},{"type":"Feature","properties":{"country":"U.S.A.","institutionCode":"INHS","locality":"Fillmore","stateProvince":"California"},"geometry":{"type":"Point","coordinates":[-118.91722,34.39917]}},{"type":"Feature","properties":{"country":"Brazil","institutionCode":"MZPW","locality":"Cuiaba","stateProvince":"Mato Grosso"},"geometry":{"type":"Point","coordinates":[-56.0833333,-15.5833333]}},{"type":"Feature","properties":{"country":"Ecuador","institutionCode":"INHS","locality":"Reserva Etnica Waorani, Onkone Gare Camp","stateProvince":"Orellana"},"geometry":{"type":"Point","coordinates":[-76.433333333333,-0.65277777777778]}},{"type":"Feature","properties":{"country":"Bolivia","institutionCode":"ZMPA","locality":"Provincia del Sara","stateProvince":"Santa Cruz"},"geometry":{"type":"Point","coordinates":[-63.916666666667,-17]}},{"type":"Feature","properties":{"country":"Brazil","institutionCode":"DZUP","locality":"Sinop","stateProvince":"Mato Grosso"},"geometry":{"type":"Point","coordinates":[-55.46,-11.85]}},{"type":"Feature","properties":{"country":"Brazil","institutionCode":"INPA","locality":"BDFFP reserve, Fazenda Esteio","stateProvince":"Amazonas"},"geometry":{"type":"Point","coordinates":[-59.85,-2.4333333333333]}},{"type":"Feature","properties":{"country":"Brazil","institutionCode":"INPA","locality":"ZF-2 km 14","stateProvince":"Amazonas"},"geometry":{"type":"Point","coordinates":[-60.115277777778,-2.5891666666667]}},{"type":"Feature","properties":{"country":"Guyana","institutionCode":"CAS","locality":"1km N Kurupukari, Iwokrama Forest Research Station"},"geometry":{"type":"Point","coordinates":[-59,4.5]}},{"type":"Feature","properties":{"country":"Brazil","institutionCode":"MNHN","locality":"Santo Antonio do Taua","stateProvince":"Para"},"geometry":{"type":"Point","coordinates":[-48.1333,-1.1833333]}},{"type":"Feature","properties":{"country":"Brazil","institutionCode":"DZRJ","locality":"ZF-2 km 14","stateProvince":"Amazonas"},"geometry":{"type":"Point","coordinates":[-60.115277777778,-2.5891666666667]}},{"type":"Feature","properties":{"country":"French Guiana","institutionCode":"MNHN","locality":"Antecumepata, Saut Kialo"},"geometry":{"type":"Point","coordinates":[-54.07,3.28]}},{"type":"Feature","properties":{"country":"Brazil","institutionCode":"MNRJ","locality":"Manaus","stateProvince":"Amazonas"},"geometry":{"type":"Point","coordinates":[-60.0253,-3.1133]}},{"type":"Feature","properties":{"country":"Venezuela","institutionCode":"MIZA","locality":"Anaceco","stateProvince":"Bolivar"},"geometry":{"type":"Point","coordinates":[-61.133333333333,6.0833333333333]}},{"type":"Feature","properties":{"country":"Venezuela","institutionCode":"MIZA","locality":"Los Pijiguaos","stateProvince":"Bolivar"},"geometry":{"type":"Point","coordinates":[-66.7472,6.5886]}},{"type":"Feature","properties":{"country":"Brazil","institutionCode":"OSU","locality":"Manaus","stateProvince":"Amazonas"},"geometry":{"type":"Point","coordinates":[-60.0253,-3.1133]}},{"type":"Feature","properties":{"country":"Brazil","institutionCode":"NHRS","locality":"Tonantins","stateProvince":"Amazonas"},"geometry":{"type":"Point","coordinates":[-67.7833,-2.7833]}},{"type":"Feature","properties":{"country":"Colombia","institutionCode":"BMNH","locality":"Gorgonas Island","stateProvince":"Cauca"},"geometry":{"type":"Point","coordinates":[-78.333333333333,2.9833333333333]}},{"type":"Feature","properties":{"country":"Ecuador","institutionCode":"USNM","locality":"56km S Santo Domingo de los Colorados, Rio Palenque Biological Station","stateProvince":"Los Rios"},"geometry":{"type":"Point","coordinates":[-79.15,-0.75361111111111]}},{"type":"Feature","properties":{"country":"Colombia","institutionCode":"BMNH","locality":"Gorgonas Island","stateProvince":"Cauca"},"geometry":{"type":"Point","coordinates":[-78.333333333333,2.9833333333333]}},{"type":"Feature","properties":{"country":"Colombia","locality":"Gorgonas Island","stateProvince":"Cauca"},"geometry":{"type":"Point","coordinates":[-78.333333333333,2.9833333333333]}},{"type":"Feature","properties":{"country":"Costa Rica","institutionCode":"INBC","locality":"Peninsula Osa, Corcovado National Park","stateProvince":"Puntarenas"},"geometry":{"type":"Point","coordinates":[-83.583333333333,8.55]}},{"type":"Feature","properties":{"country":"Costa Rica","institutionCode":"INBC","locality":"Peninsula Osa, Rancho Quemado [LS 292500 511000]","stateProvince":"Puntarenas"},"geometry":{"type":"Point","coordinates":[-83.58,8.68]}},{"type":"Feature","properties":{"catalogNumber":"D.M. Takiya","country":"Brazil","institutionCode":"INPA","locality":"Manaus [sic!]","stateProvince":"Amazonas"},"geometry":{"type":"Point","coordinates":[-60.0253,-3.1133]}},{"type":"Feature","properties":{"country":"French Guiana","institutionCode":"USNM","locality":"Maroni River"},"geometry":{"type":"Point","coordinates":[-54.066666666667,3.3]}},{"type":"Feature","properties":{"country":"Peru","institutionCode":"BMNH","locality":"Tingo Maria, 1km E of town","stateProvince":"Huanuco"},"geometry":{"type":"Point","coordinates":[-75.974166666667,-9.3]}},{"type":"Feature","properties":{"country":"Peru","institutionCode":"BMNH","locality":"Tingo Maria, 1km E of town","stateProvince":"Huanuco"},"geometry":{"type":"Point","coordinates":[-75.974166666667,-9.3]}},{"type":"Feature","properties":{"country":"U.S.A.","locality":"Opelousas","stateProvince":"Louisiana"},"geometry":{"type":"Point","coordinates":[-92.08139,30.53333]}},{"type":"Feature","properties":{"country":"U.S.A.","institutionCode":"UDCC","locality":"Newark, Univ. Delaware - woodlot","stateProvince":"Delaware"},"geometry":{"type":"Point","coordinates":[-75.75,39.68361]}},{"type":"Feature","properties":{"country":"U.S.A.","institutionCode":"UDCC","locality":"GSMNP Cades Cove","stateProvince":"Tennessee"},"geometry":{"type":"Point","coordinates":[-83.838055555556,35.591944444444]}},{"type":"Feature","properties":{"country":"U.S.A.","institutionCode":"UDCC","locality":"n. Avondale, Stroud Water R. C.","stateProvince":"Pennsylvania"},"geometry":{"type":"Point","coordinates":[-76.68944,39.93583]}},{"type":"Feature","properties":{"country":"U.S.A.","locality":"Zeigler [sic!]","stateProvince":"Illinois"},"geometry":{"type":"Point","coordinates":[-89.05194,37.89944]}},{"type":"Feature","properties":{"country":"U.S.A.","institutionCode":"UDCC","locality":"Baton Rouge","stateProvince":"Louisiana"},"geometry":{"type":"Point","coordinates":[-91.15444,30.45056]}},{"type":"Feature","properties":{"country":"U.S.A.","institutionCode":"UDCC","locality":"Sikeston","stateProvince":"Missouri"},"geometry":{"type":"Point","coordinates":[-89.58778,36.87667]}},{"type":"Feature","properties":{"country":"U.S.A.","institutionCode":"INHS","locality":"10 km N\/NE Mountain View, E. of MO 17, N of Jack Fork River, 14\/18-vii-2000","stateProvince":"Missouri"},"geometry":{"type":"Point","coordinates":[-91.615555555556,37.062222222222]}},{"type":"Feature","properties":{"country":"U.S.A.","institutionCode":"UDCC","locality":"Laurel, Trapp Pond","stateProvince":"Delaware"},"geometry":{"type":"Point","coordinates":[-75.57167,38.55639]}},{"type":"Feature","properties":{"country":"U.S.A.","institutionCode":"TAMU","locality":"College Station, Riley Estate","stateProvince":"Texas"},"geometry":{"type":"Point","coordinates":[-96.253333333333,30.588333333333]}},{"type":"Feature","properties":{"country":"U.S.A.","institutionCode":"UDCC","locality":"College Station","stateProvince":"Texas"},"geometry":{"type":"Point","coordinates":[-96.33417,30.62778]}},{"type":"Feature","properties":{"country":"U.S.A.","institutionCode":"UDCC","locality":"Philadelphia","stateProvince":"Pennsylvania"},"geometry":{"type":"Point","coordinates":[-75.16417,39.95222]}},{"type":"Feature","properties":{"country":"U.S.A.","locality":"Fort Valley","stateProvince":"Georgia"},"geometry":{"type":"Point","coordinates":[-83.8875,32.55361]}},{"type":"Feature","properties":{"country":"U.S.A.","locality":"Dublin","stateProvince":"Georgia"},"geometry":{"type":"Point","coordinates":[-82.90389,32.54028]}},{"type":"Feature","properties":{"country":"U.S.A.","institutionCode":"UDCC","locality":"n. Salem, at 166 Maskell's Mill Rd.","stateProvince":"New Jersey"},"geometry":{"type":"Point","coordinates":[-75.4675,39.57167]}},{"type":"Feature","properties":{"country":"U.S.A.","locality":"Helena","stateProvince":"Arkansas"},"geometry":{"type":"Point","coordinates":[-90.59167,34.52944]}},{"type":"Feature","properties":{"country":"U.S.A.","institutionCode":"UDCC","locality":"Greenville","stateProvince":"Iowa"},"geometry":{"type":"Point","coordinates":[-95.14583,43.01667]}},{"type":"Feature","properties":{"country":"U.S.A.","locality":"Thomasville","stateProvince":"Alabama"},"geometry":{"type":"Point","coordinates":[-87.73583,31.91333]}},{"type":"Feature","properties":{"country":"Costa Rica","institutionCode":"RK","locality":"San Pedro Montes de Oca"},"geometry":{"type":"Point","coordinates":[-84.05,9.9333333]}},{"type":"Feature","properties":{"country":"Costa Rica","institutionCode":"SMFD","locality":"Escasu","stateProvince":"San Jose"},"geometry":{"type":"Point","coordinates":[-84.1333333,9.9166667]}},{"type":"Feature","properties":{"country":"Costa Rica","institutionCode":"SMFD","locality":"San Pedro Montes de Oca"},"geometry":{"type":"Point","coordinates":[-84.05,9.9333333]}},{"type":"Feature","properties":{"country":"Mexico","institutionCode":"EMEC","locality":"Valerio Trujano","stateProvince":"Oaxaca"},"geometry":{"type":"Point","coordinates":[-96.9763889,17.7691667]}},{"type":"Feature","properties":{"country":"Costa Rica","institutionCode":"INHS","locality":"2 km W Arenal, site # 03-33","stateProvince":"Guanacaste"},"geometry":{"type":"Point","coordinates":[-84.878611111111,10.530555555556]}},{"type":"Feature","properties":{"country":"Mexico","institutionCode":"INHS","locality":"Rt. 195 km#31, 10 km NE Chiapa de Corzo","stateProvince":"Chiapas"},"geometry":{"type":"Point","coordinates":[-92.9667,16.8167]}},{"type":"Feature","properties":{"country":"Costa Rica","institutionCode":"INHS","locality":"site # 03-26","stateProvince":"Guanacaste"},"geometry":{"type":"Point","coordinates":[-85.264722222222,10.529444444444]}},{"type":"Feature","properties":{"country":"Mexico","institutionCode":"EMEC","locality":"Oaxaca","stateProvince":"Oaxaca"},"geometry":{"type":"Point","coordinates":[-96.7166667,17.05]}},{"type":"Feature","properties":{"country":"Mexico","institutionCode":"INHS","locality":"Rt. 180 km #90, 7 km NE Covarrubias","stateProvince":"Veracruz"},"geometry":{"type":"Point","coordinates":[-95.1383,18.1269]}},{"type":"Feature","properties":{"country":"Panama","institutionCode":"TAMU","locality":"2 km S. Sabanitas, 10-11, viii, 1999","stateProvince":"Colon"},"geometry":{"type":"Point","coordinates":[-79.798333333333,9.3219444444444]}},{"type":"Feature","properties":{"country":"Mexico","institutionCode":"EMEC","locality":"Oaxaca","stateProvince":"Oaxaca"},"geometry":{"type":"Point","coordinates":[-96.7166667,17.05]}},{"type":"Feature","properties":{"country":"Mexico","institutionCode":"EMEC","locality":"Acapulco","stateProvince":"Guerrero"},"geometry":{"type":"Point","coordinates":[-99.9166667,16.85]}},{"type":"Feature","properties":{"country":"Mexico","institutionCode":"EMEC","locality":"Oaxaca","stateProvince":"Oaxaca"},"geometry":{"type":"Point","coordinates":[-96.7166667,17.05]}},{"type":"Feature","properties":{"country":"Mexico","institutionCode":"INHS","locality":"8.6 km S. Pichucalco, site #01-45","stateProvince":"Chiapas"},"geometry":{"type":"Point","coordinates":[-93.1486,17.4494]}},{"type":"Feature","properties":{"country":"Mexico","institutionCode":"USNM","locality":"Revolcadero near Acapulco, VII-1959","stateProvince":"Guerrero"},"geometry":{"type":"Point","coordinates":[-99.9166667,16.85]}},{"type":"Feature","properties":{"country":"Mexico","institutionCode":"EMEC","locality":"Oaxaca","stateProvince":"Oaxaca"},"geometry":{"type":"Point","coordinates":[-96.7166667,17.05]}},{"type":"Feature","properties":{"country":"Costa Rica","institutionCode":"INHS","locality":"Alajuela, site # 03-40","stateProvince":"Chachagua"},"geometry":{"type":"Point","coordinates":[-84.570555555556,10.411388888889]}},{"type":"Feature","properties":{"country":"Mexico","institutionCode":"EMEC","locality":"Oaxaca","stateProvince":"Oaxaca"},"geometry":{"type":"Point","coordinates":[-96.7166667,17.05]}},{"type":"Feature","properties":{"country":"Mexico","institutionCode":"INHS","locality":"13 km S. Pichucalco, site #01-46","stateProvince":"Chiapas"},"geometry":{"type":"Point","coordinates":[-93.1803,17.4439]}},{"type":"Feature","properties":{"country":"Mexico","institutionCode":"INHS","locality":"13 km S. Pichucalco, site #01-46","stateProvince":"Chiapas"},"geometry":{"type":"Point","coordinates":[-93.180277777778,17.443888888889]}},{"type":"Feature","properties":{"country":"Costa Rica","institutionCode":"INHS","locality":"Palo Verde OTS stations, site # 03-27","stateProvince":"Guanacaste"},"geometry":{"type":"Point","coordinates":[-85.339444444444,10.345]}},{"type":"Feature","properties":{"country":"Panama","institutionCode":"TAMU","locality":"Verguas Pr. 8 km W. Santa Fe, Cerro Tute"},"geometry":{"type":"Point","coordinates":[-81.113611111111,8.5072222222222]}},{"type":"Feature","properties":{"country":"Mexico","institutionCode":"EMEC","locality":"2 mi NW Oaxaca","stateProvince":"Oaxaca"},"geometry":{"type":"Point","coordinates":[-96.73805556,17.07055556]}},{"type":"Feature","properties":{"country":"Costa Rica","institutionCode":"SMFD","locality":"Vara Blanca","stateProvince":"Heredia"},"geometry":{"type":"Point","coordinates":[-84.15,10.1666667]}},{"type":"Feature","properties":{"country":"Costa Rica","institutionCode":"SMFD","locality":"Vara Blanca","stateProvince":"Heredia"},"geometry":{"type":"Point","coordinates":[-84.15,10.1666667]}},{"type":"Feature","properties":{"country":"Costa Rica","institutionCode":"SMFD","locality":"La Pavas, Rio Tibiri","stateProvince":"San Jose"},"geometry":{"type":"Point","coordinates":[-84.1333333,9.95]}},{"type":"Feature","properties":{"country":"U.S.A.","locality":"Apopka","stateProvince":"Florida"},"geometry":{"type":"Point","coordinates":[-81.5097,28.6803]}},{"type":"Feature","properties":{"country":"U.S.A.","institutionCode":"TAMU","locality":"Archibold Biological Station","stateProvince":"Florida"},"geometry":{"type":"Point","coordinates":[-81.35,27.183333333333]}},{"type":"Feature","properties":{"country":"U.S.A.","locality":"Fort Pierce","stateProvince":"Florida"},"geometry":{"type":"Point","coordinates":[-80.3258,27.4464]}},{"type":"Feature","properties":{"country":"U.S.A.","locality":"Big Pine Key","stateProvince":"Florida"},"geometry":{"type":"Point","coordinates":[-81.35417,24.6694]}},{"type":"Feature","properties":{"country":"Ecuador","institutionCode":"CNC","locality":"Rio Palenque"},"geometry":{"type":"Point","coordinates":[-79.366666666667,-0.58333333333333]}},{"type":"Feature","properties":{"country":"Panama","locality":"Barro Colorado Island"},"geometry":{"type":"Point","coordinates":[-79.8378,9.1636]}},{"type":"Feature","properties":{"country":"Mexico","institutionCode":"CNC","locality":"25 km SW of Simojove [de Allende]","stateProvince":"Chiapas"},"geometry":{"type":"Point","coordinates":[-92.6333,17.2]}},{"type":"Feature","properties":{"country":"Mexico","institutionCode":"CNC","locality":"5 mi W of San Cristobal [de las Casas]","stateProvince":"Chiapas"},"geometry":{"type":"Point","coordinates":[-92.6333,16.75]}},{"type":"Feature","properties":{"country":"Mexico","locality":"Cuernavaca","stateProvince":"Morelos"},"geometry":{"type":"Point","coordinates":[-99.25,18.9166667]}},{"type":"Feature","properties":{"country":"U.S.A.","institutionCode":"TAMU","locality":"Sedona","stateProvince":"Arizona"},"geometry":{"type":"Point","coordinates":[-111.761,34.87]}},{"type":"Feature","properties":{"country":"U.S.A.","locality":"Prescott","stateProvince":"Arizona"},"geometry":{"type":"Point","coordinates":[-112.469,34.54]}},{"type":"Feature","properties":{"country":"U.S.A.","institutionCode":"INHS","locality":"Hualapai Pk.","stateProvince":"Arizona"},"geometry":{"type":"Point","coordinates":[-113.901,35.075]}},{"type":"Feature","properties":{"country":"U.S.A.","institutionCode":"EMEC","locality":"Sta. Catalina Mts., 7 mi down fr. Soldiers Camp","stateProvince":"Arizona"},"geometry":{"type":"Point","coordinates":[-110.71666666667,32.333333333333]}},{"type":"Feature","properties":{"country":"U.S.A.","institutionCode":"UGCA","locality":"Aguirre Spr. Nat. Rec. Area","stateProvince":"New Mexico"},"geometry":{"type":"Point","coordinates":[-106.56,32.37]}},{"type":"Feature","properties":{"country":"U.S.A.","institutionCode":"INHS","locality":"20.6 mi N Globe, 0.2 mi W rt. 77 (btw. milepost 275-276) on a side road, site #04-67","stateProvince":"Arizona"},"geometry":{"type":"Point","coordinates":[-110.5948,33.6296]}},